<?xml version="1.0" encoding="utf-8"?>
<kml xmlns="http://www.opengis.net/kml/2.2">
  <Document>
    <Placemark>
      <name>AOG - ADELONG</name>
      <description>State: NSW</description>
      <Point>
        <coordinates>148.06666666666666,-35.30833333333333,0</coordinates>
      </Point>
    </Placemark>
    <Placemark>
      <name>APM - ANM PAPER MILL</name>
      <description>State: NSW</description>
      <Point>
        <coordinates>146.98333333333332,-36.0,0</coordinates>
      </Point>
    </Placemark>
    <Placemark>
      <name>ANA - ANNA BAY</name>
      <description>State: NSW</description>
      <Point>
        <coordinates>152.08333333333334,-32.78333333333333,0</coordinates>
      </Point>
    </Placemark>
    <Placemark>
      <name>APPN - APPIN</name>
      <description>State: NSW</description>
      <Point>
        <coordinates>150.78833333333333,-34.2,0</coordinates>
      </Point>
    </Placemark>
    <Placemark>
      <name>ASU - ARUNDEL SUBSTATION</name>
      <description>State: NSW</description>
      <Point>
        <coordinates>147.4,-35.208333333333336,0</coordinates>
      </Point>
    </Placemark>
    <Placemark>
      <name>ATG - ATTUNGA</name>
      <description>State: NSW</description>
      <Point>
        <coordinates>150.8388888888889,-30.933333333333334,0</coordinates>
      </Point>
    </Placemark>
    <Placemark>
      <name>ALEC - AUSTRALIAN LIVESTOCK EQUINE CENT</name>
      <description>State: NSW</description>
      <Point>
        <coordinates>150.9211111111111,-31.134722222222223,0</coordinates>
      </Point>
    </Placemark>
    <Placemark>
      <name>BANG - BANGALOW</name>
      <description>State: NSW</description>
      <Point>
        <coordinates>153.51666666666668,-28.686666666666667,0</coordinates>
      </Point>
    </Placemark>
    <Placemark>
      <name>BRNJ - BARRENJOEY HEAD</name>
      <description>State: NSW</description>
      <Point>
        <coordinates>151.32666666666665,-33.580000000000005,0</coordinates>
      </Point>
    </Placemark>
    <Placemark>
      <name>BRR - BARRINGUN</name>
      <description>State: NSW</description>
      <Point>
        <coordinates>145.7,-29.016666666666666,0</coordinates>
      </Point>
    </Placemark>
    <Placemark>
      <name>BATB - BATEMANS BAY</name>
      <description>State: NSW</description>
      <Point>
        <coordinates>150.18333333333334,-35.71666666666667,0</coordinates>
      </Point>
    </Placemark>
    <Placemark>
      <name>BIV - BECTIVE HS</name>
      <description>State: NSW</description>
      <Point>
        <coordinates>150.73833333333332,-30.97222222222222,0</coordinates>
      </Point>
    </Placemark>
    <Placemark>
      <name>BLR - BELLBROOK</name>
      <description>State: NSW</description>
      <Point>
        <coordinates>152.51111111111112,-30.821666666666665,0</coordinates>
      </Point>
    </Placemark>
    <Placemark>
      <name>BND - BENDEMEER</name>
      <description>State: NSW</description>
      <Point>
        <coordinates>151.15,-30.883333333333333,0</coordinates>
      </Point>
    </Placemark>
    <Placemark>
      <name>BEE - BERILEE</name>
      <description>State: NSW</description>
      <Point>
        <coordinates>151.105,-33.62,0</coordinates>
      </Point>
    </Placemark>
    <Placemark>
      <name>BBH - BOTANY BAY HEADS</name>
      <description>State: NSW</description>
      <Point>
        <coordinates>151.24166666666665,-34.00833333333333,0</coordinates>
      </Point>
    </Placemark>
    <Placemark>
      <name>BOW - BOWNA</name>
      <description>State: NSW</description>
      <Point>
        <coordinates>147.11666666666667,-35.95,0</coordinates>
      </Point>
    </Placemark>
    <Placemark>
      <name>BWL - BOWRAL</name>
      <description>State: NSW</description>
      <Point>
        <coordinates>150.41805555555555,-34.47916666666667,0</coordinates>
      </Point>
    </Placemark>
    <Placemark>
      <name>BOV - BOWRAVILLE</name>
      <description>State: NSW</description>
      <Point>
        <coordinates>152.85,-30.65,0</coordinates>
      </Point>
    </Placemark>
    <Placemark>
      <name>BAXT - BRANXTON</name>
      <description>State: NSW</description>
      <Point>
        <coordinates>151.35,-32.666666666666664,0</coordinates>
      </Point>
    </Placemark>
    <Placemark>
      <name>BZA - BREEZA</name>
      <description>State: NSW</description>
      <Point>
        <coordinates>150.46666666666667,-31.25,0</coordinates>
      </Point>
    </Placemark>
    <Placemark>
      <name>BRY - BRINGELLY</name>
      <description>State: NSW</description>
      <Point>
        <coordinates>150.72833333333332,-33.94166666666666,0</coordinates>
      </Point>
    </Placemark>
    <Placemark>
      <name>BBG - BROOKLYN BRIDGE</name>
      <description>State: NSW</description>
      <Point>
        <coordinates>151.19583333333333,-33.54083333333333,0</coordinates>
      </Point>
    </Placemark>
    <Placemark>
      <name>BRI - BROUGHTON ISLAND</name>
      <description>State: NSW</description>
      <Point>
        <coordinates>152.30833333333334,-32.608333333333334,0</coordinates>
      </Point>
    </Placemark>
    <Placemark>
      <name>BRH - BRUNSWICK HEADS</name>
      <description>State: NSW</description>
      <Point>
        <coordinates>153.55,-28.541666666666668,0</coordinates>
      </Point>
    </Placemark>
    <Placemark>
      <name>URG - BURBONG</name>
      <description>State: NSW</description>
      <Point>
        <coordinates>149.30972222222223,-35.34027777777778,0</coordinates>
      </Point>
    </Placemark>
    <Placemark>
      <name>BUGA - BURRAGA</name>
      <description>State: NSW</description>
      <Point>
        <coordinates>149.56666666666666,-33.88333333333333,0</coordinates>
      </Point>
    </Placemark>
    <Placemark>
      <name>BJK - BURRINJUCK</name>
      <description>State: NSW</description>
      <Point>
        <coordinates>148.58333333333334,-35.005,0</coordinates>
      </Point>
    </Placemark>
    <Placemark>
      <name>BMK - BURRUMBUTTOCK</name>
      <description>State: NSW</description>
      <Point>
        <coordinates>146.8,-35.833333333333336,0</coordinates>
      </Point>
    </Placemark>
    <Placemark>
      <name>BYRK - BYROCK</name>
      <description>State: NSW</description>
      <Point>
        <coordinates>146.4,-30.65,0</coordinates>
      </Point>
    </Placemark>
    <Placemark>
      <name>BBAY - BYRON BAY</name>
      <description>State: NSW</description>
      <Point>
        <coordinates>153.61666666666667,-28.65,0</coordinates>
      </Point>
    </Placemark>
    <Placemark>
      <name>CAMB - CAMPBELLTOWN UNIVERSITY</name>
      <description>State: NSW</description>
      <Point>
        <coordinates>150.78333333333333,-34.07166666666667,0</coordinates>
      </Point>
    </Placemark>
    <Placemark>
      <name>CBY - CANTERBURY RACECOURSE</name>
      <description>State: NSW</description>
      <Point>
        <coordinates>151.11166666666665,-33.90833333333333,0</coordinates>
      </Point>
    </Placemark>
    <Placemark>
      <name>CAPS - CAPE BANKS</name>
      <description>State: NSW</description>
      <Point>
        <coordinates>151.24444444444444,-33.9975,0</coordinates>
      </Point>
    </Placemark>
    <Placemark>
      <name>CAPT - CAPTAINS FLAT</name>
      <description>State: NSW</description>
      <Point>
        <coordinates>149.4452777777778,-35.59111111111111,0</coordinates>
      </Point>
    </Placemark>
    <Placemark>
      <name>CYM - CHAFFEY DAM</name>
      <description>State: NSW</description>
      <Point>
        <coordinates>151.13333333333333,-31.341666666666665,0</coordinates>
      </Point>
    </Placemark>
    <Placemark>
      <name>CHAT - CHATSWOOD CBD</name>
      <description>State: NSW</description>
      <Point>
        <coordinates>151.18527777777777,-33.79611111111111,0</coordinates>
      </Point>
    </Placemark>
    <Placemark>
      <name>CIB - CHIPBOARD FACTORY</name>
      <description>State: NSW</description>
      <Point>
        <coordinates>147.40416666666667,-35.07083333333334,0</coordinates>
      </Point>
    </Placemark>
    <Placemark>
      <name>CNTH - CHOPPERS NORTH</name>
      <description>State: NSW</description>
      <Point>
        <coordinates>151.025,-33.88166666666667,0</coordinates>
      </Point>
    </Placemark>
    <Placemark>
      <name>CSTH - CHOPPERS SOUTH</name>
      <description>State: NSW</description>
      <Point>
        <coordinates>150.96444444444444,-33.95416666666667,0</coordinates>
      </Point>
    </Placemark>
    <Placemark>
      <name>CWST - CHOPPERS WEST</name>
      <description>State: NSW</description>
      <Point>
        <coordinates>151.0038888888889,-33.87361111111111,0</coordinates>
      </Point>
    </Placemark>
    <Placemark>
      <name>COBA - COBAKI</name>
      <description>State: NSW</description>
      <Point>
        <coordinates>153.48777777777775,-28.183333333333334,0</coordinates>
      </Point>
    </Placemark>
    <Placemark>
      <name>CGE - COLLINGULLIE</name>
      <description>State: NSW</description>
      <Point>
        <coordinates>147.12083333333334,-35.08888888888889,0</coordinates>
      </Point>
    </Placemark>
    <Placemark>
      <name>CONG - COMERONG ISLAND</name>
      <description>State: NSW</description>
      <Point>
        <coordinates>150.73333333333332,-34.88333333333333,0</coordinates>
      </Point>
    </Placemark>
    <Placemark>
      <name>CGM - CONDONG MILL</name>
      <description>State: NSW</description>
      <Point>
        <coordinates>153.43333333333334,-28.316666666666666,0</coordinates>
      </Point>
    </Placemark>
    <Placemark>
      <name>CIS - COOK ISLAND</name>
      <description>State: NSW</description>
      <Point>
        <coordinates>153.57777777777778,-28.197222222222223,0</coordinates>
      </Point>
    </Placemark>
    <Placemark>
      <name>CLMN - COOLAMON</name>
      <description>State: NSW</description>
      <Point>
        <coordinates>147.2,-34.81666666666667,0</coordinates>
      </Point>
    </Placemark>
    <Placemark>
      <name>CUL - CRONULLA</name>
      <description>State: NSW</description>
      <Point>
        <coordinates>151.15333333333334,-34.06166666666666,0</coordinates>
      </Point>
    </Placemark>
    <Placemark>
      <name>CRPC - CROPPA CREEK</name>
      <description>State: NSW</description>
      <Point>
        <coordinates>150.3,-29.133333333333333,0</coordinates>
      </Point>
    </Placemark>
    <Placemark>
      <name>CCN - CULCAIRN</name>
      <description>State: NSW</description>
      <Point>
        <coordinates>147.0388888888889,-35.666666666666664,0</coordinates>
      </Point>
    </Placemark>
    <Placemark>
      <name>DHH - DARLING HARBOUR</name>
      <description>State: NSW</description>
      <Point>
        <coordinates>151.2,-33.858333333333334,0</coordinates>
      </Point>
    </Placemark>
    <Placemark>
      <name>DODI - DODDS ISLAND</name>
      <description>State: NSW</description>
      <Point>
        <coordinates>153.5336111111111,-28.248055555555556,0</coordinates>
      </Point>
    </Placemark>
    <Placemark>
      <name>DLPT - DOLLS POINT</name>
      <description>State: NSW</description>
      <Point>
        <coordinates>151.14805555555554,-33.99472222222222,0</coordinates>
      </Point>
    </Placemark>
    <Placemark>
      <name>DRO - DORRIGO</name>
      <description>State: NSW</description>
      <Point>
        <coordinates>152.71249999999998,-30.341666666666665,0</coordinates>
      </Point>
    </Placemark>
    <Placemark>
      <name>DGN - DUNGOWAN</name>
      <description>State: NSW</description>
      <Point>
        <coordinates>151.11666666666667,-31.216666666666665,0</coordinates>
      </Point>
    </Placemark>
    <Placemark>
      <name>DUWN - DUNGOWAN DAM</name>
      <description>State: NSW</description>
      <Point>
        <coordinates>151.35,-31.4,0</coordinates>
      </Point>
    </Placemark>
    <Placemark>
      <name>DUA - DURI GAP</name>
      <description>State: NSW</description>
      <Point>
        <coordinates>150.7,-31.2,0</coordinates>
      </Point>
    </Placemark>
    <Placemark>
      <name>DMT - DURI MT</name>
      <description>State: NSW</description>
      <Point>
        <coordinates>150.73055555555555,-31.204166666666666,0</coordinates>
      </Point>
    </Placemark>
    <Placemark>
      <name>EGT - EAST GRETA</name>
      <description>State: NSW</description>
      <Point>
        <coordinates>151.5375,-32.737500000000004,0</coordinates>
      </Point>
    </Placemark>
    <Placemark>
      <name>ERSK - ERSKINEVILLE OVAL</name>
      <description>State: NSW</description>
      <Point>
        <coordinates>151.19055555555556,-33.90222222222222,0</coordinates>
      </Point>
    </Placemark>
    <Placemark>
      <name>ETTA - ETTAMOGAH PUB</name>
      <description>State: NSW</description>
      <Point>
        <coordinates>147.00833333333333,-35.968333333333334,0</coordinates>
      </Point>
    </Placemark>
    <Placemark>
      <name>FHS - FARRER HIGH SCHOOL</name>
      <description>State: NSW</description>
      <Point>
        <coordinates>150.98333333333332,-31.141666666666666,0</coordinates>
      </Point>
    </Placemark>
    <Placemark>
      <name>FSHR - FISHERMANS PARADISE</name>
      <description>State: NSW</description>
      <Point>
        <coordinates>150.44833333333332,-35.230555555555554,0</coordinates>
      </Point>
    </Placemark>
    <Placemark>
      <name>FIT - FITNESS CAMP</name>
      <description>State: NSW</description>
      <Point>
        <coordinates>147.62222222222223,-35.166666666666664,0</coordinates>
      </Point>
    </Placemark>
    <Placemark>
      <name>GST - GATE SOUTH</name>
      <description>State: NSW</description>
      <Point>
        <coordinates>150.68472222222223,-31.290277777777778,0</coordinates>
      </Point>
    </Placemark>
    <Placemark>
      <name>GWT - GATE WEST</name>
      <description>State: NSW</description>
      <Point>
        <coordinates>150.57222222222222,-31.020833333333332,0</coordinates>
      </Point>
    </Placemark>
    <Placemark>
      <name>GRB - GEORGES RIVER BRIDGE</name>
      <description>State: NSW</description>
      <Point>
        <coordinates>151.10999999999999,-34.00333333333333,0</coordinates>
      </Point>
    </Placemark>
    <Placemark>
      <name>GOY - GEROGERY</name>
      <description>State: NSW</description>
      <Point>
        <coordinates>146.99166666666665,-35.83888888888889,0</coordinates>
      </Point>
    </Placemark>
    <Placemark>
      <name>GVB - GLADESVILLE BRIDGE</name>
      <description>State: NSW</description>
      <Point>
        <coordinates>151.14666666666665,-33.84166666666667,0</coordinates>
      </Point>
    </Placemark>
    <Placemark>
      <name>GBRY - GLEN BRAY</name>
      <description>State: NSW</description>
      <Point>
        <coordinates>147.00833333333333,-35.925,0</coordinates>
      </Point>
    </Placemark>
    <Placemark>
      <name>GLEN - GLENLOCH INTERCHANGE</name>
      <description>State: NSW</description>
      <Point>
        <coordinates>149.085,-35.28444444444444,0</coordinates>
      </Point>
    </Placemark>
    <Placemark>
      <name>GRE - GLENREAGH</name>
      <description>State: NSW</description>
      <Point>
        <coordinates>152.9777777777778,-30.054166666666667,0</coordinates>
      </Point>
    </Placemark>
    <Placemark>
      <name>GCR - GLOUCESTER</name>
      <description>State: NSW</description>
      <Point>
        <coordinates>151.96666666666667,-32.00416666666667,0</coordinates>
      </Point>
    </Placemark>
    <Placemark>
      <name>GGV - GOOGONG RESV</name>
      <description>State: NSW</description>
      <Point>
        <coordinates>149.26111111111112,-35.420833333333334,0</coordinates>
      </Point>
    </Placemark>
    <Placemark>
      <name>GGO - GOONOO GOONOO HS</name>
      <description>State: NSW</description>
      <Point>
        <coordinates>150.90555555555557,-31.309722222222224,0</coordinates>
      </Point>
    </Placemark>
    <Placemark>
      <name>GRRV - GROSE RIVER</name>
      <description>State: NSW</description>
      <Point>
        <coordinates>150.67027777777776,-33.614444444444445,0</coordinates>
      </Point>
    </Placemark>
    <Placemark>
      <name>GDG - GUNDAGAI</name>
      <description>State: NSW</description>
      <Point>
        <coordinates>148.10277777777776,-35.06111111111111,0</coordinates>
      </Point>
    </Placemark>
    <Placemark>
      <name>GUNN - GUNNING</name>
      <description>State: NSW</description>
      <Point>
        <coordinates>149.26666666666668,-34.781666666666666,0</coordinates>
      </Point>
    </Placemark>
    <Placemark>
      <name>HBB - HARBOUR BRIDGE</name>
      <description>State: NSW</description>
      <Point>
        <coordinates>151.20833333333331,-33.85333333333333,0</coordinates>
      </Point>
    </Placemark>
    <Placemark>
      <name>HAF - HAREFIELD</name>
      <description>State: NSW</description>
      <Point>
        <coordinates>147.51666666666668,-34.96388888888889,0</coordinates>
      </Point>
    </Placemark>
    <Placemark>
      <name>HASS - HASTINGS PT</name>
      <description>State: NSW</description>
      <Point>
        <coordinates>153.57999999999998,-28.358333333333334,0</coordinates>
      </Point>
    </Placemark>
    <Placemark>
      <name>HATF - HATFIELD</name>
      <description>State: NSW</description>
      <Point>
        <coordinates>143.65,-33.7,0</coordinates>
      </Point>
    </Placemark>
    <Placemark>
      <name>HNB - HELENSBURGH</name>
      <description>State: NSW</description>
      <Point>
        <coordinates>150.975,-34.19166666666666,0</coordinates>
      </Point>
    </Placemark>
    <Placemark>
      <name>HNTY - HENTY</name>
      <description>State: NSW</description>
      <Point>
        <coordinates>147.03333333333333,-35.525,0</coordinates>
      </Point>
    </Placemark>
    <Placemark>
      <name>HXB - HEXHAM BRIDGE</name>
      <description>State: NSW</description>
      <Point>
        <coordinates>151.69,-32.830000000000005,0</coordinates>
      </Point>
    </Placemark>
    <Placemark>
      <name>HBKT - HOLBROOK TOWNSHIP</name>
      <description>State: NSW</description>
      <Point>
        <coordinates>147.325,-35.730555555555554,0</coordinates>
      </Point>
    </Placemark>
    <Placemark>
      <name>HSY - HORNSBY</name>
      <description>State: NSW</description>
      <Point>
        <coordinates>151.10666666666665,-33.69166666666666,0</coordinates>
      </Point>
    </Placemark>
    <Placemark>
      <name>HST - HOSKINSTOWN</name>
      <description>State: NSW</description>
      <Point>
        <coordinates>149.45,-35.42222222222222,0</coordinates>
      </Point>
    </Placemark>
    <Placemark>
      <name>HWG - HOWLONG</name>
      <description>State: NSW</description>
      <Point>
        <coordinates>146.625,-35.97638888888889,0</coordinates>
      </Point>
    </Placemark>
    <Placemark>
      <name>HRD - HUNGERFORD</name>
      <description>State: NSW</description>
      <Point>
        <coordinates>144.4,-29.0,0</coordinates>
      </Point>
    </Placemark>
    <Placemark>
      <name>INGL - INGLEBURN</name>
      <description>State: NSW</description>
      <Point>
        <coordinates>150.85833333333332,-33.97166666666667,0</coordinates>
      </Point>
    </Placemark>
    <Placemark>
      <name>JIBN - JIBBON PT</name>
      <description>State: NSW</description>
      <Point>
        <coordinates>151.17,-34.085,0</coordinates>
      </Point>
    </Placemark>
    <Placemark>
      <name>JIA - JINDERA</name>
      <description>State: NSW</description>
      <Point>
        <coordinates>146.8875,-35.958333333333336,0</coordinates>
      </Point>
    </Placemark>
    <Placemark>
      <name>JNEE - JUNEE</name>
      <description>State: NSW</description>
      <Point>
        <coordinates>147.58333333333334,-34.86666666666667,0</coordinates>
      </Point>
    </Placemark>
    <Placemark>
      <name>KMA - KIAMA</name>
      <description>State: NSW</description>
      <Point>
        <coordinates>150.85,-34.666666666666664,0</coordinates>
      </Point>
    </Placemark>
    <Placemark>
      <name>KIAN - KIANDRA</name>
      <description>State: NSW</description>
      <Point>
        <coordinates>148.5,-35.86666666666667,0</coordinates>
      </Point>
    </Placemark>
    <Placemark>
      <name>KCFF - KINGSCLIFF</name>
      <description>State: NSW</description>
      <Point>
        <coordinates>153.57166666666666,-28.25,0</coordinates>
      </Point>
    </Placemark>
    <Placemark>
      <name>KIRA - KIRRA</name>
      <description>State: NSW</description>
      <Point>
        <coordinates>153.5225,-28.16638888888889,0</coordinates>
      </Point>
    </Placemark>
    <Placemark>
      <name>KOT - KOOTINGAL</name>
      <description>State: NSW</description>
      <Point>
        <coordinates>151.05,-31.05,0</coordinates>
      </Point>
    </Placemark>
    <Placemark>
      <name>KRMD - KURMOND</name>
      <description>State: NSW</description>
      <Point>
        <coordinates>150.68722222222223,-33.55083333333333,0</coordinates>
      </Point>
    </Placemark>
    <Placemark>
      <name>KYP - KYEAMBA PARK</name>
      <description>State: NSW</description>
      <Point>
        <coordinates>147.61666666666667,-35.447222222222216,0</coordinates>
      </Point>
    </Placemark>
    <Placemark>
      <name>KYE - KYEAMBA TOWER</name>
      <description>State: NSW</description>
      <Point>
        <coordinates>147.59166666666667,-35.525,0</coordinates>
      </Point>
    </Placemark>
    <Placemark>
      <name>LDH - LADYSMITH</name>
      <description>State: NSW</description>
      <Point>
        <coordinates>147.51666666666668,-35.211111111111116,0</coordinates>
      </Point>
    </Placemark>
    <Placemark>
      <name>LKT - LAKE ALBERT</name>
      <description>State: NSW</description>
      <Point>
        <coordinates>147.36333333333332,-35.17777777777778,0</coordinates>
      </Point>
    </Placemark>
    <Placemark>
      <name>LBT - LAKE BATHURST</name>
      <description>State: NSW</description>
      <Point>
        <coordinates>149.68333333333334,-35.05,0</coordinates>
      </Point>
    </Placemark>
    <Placemark>
      <name>LGGN - LAKE GEORGE NORTH</name>
      <description>State: NSW</description>
      <Point>
        <coordinates>149.39166666666665,-34.98833333333334,0</coordinates>
      </Point>
    </Placemark>
    <Placemark>
      <name>LGGS - LAKE GEORGE SOUTH</name>
      <description>State: NSW</description>
      <Point>
        <coordinates>149.40833333333333,-35.20277777777778,0</coordinates>
      </Point>
    </Placemark>
    <Placemark>
      <name>LIHR - LIGHTHORSE INTERCHANGE M7/M4</name>
      <description>State: NSW</description>
      <Point>
        <coordinates>150.85416666666666,-33.79805555555556,0</coordinates>
      </Point>
    </Placemark>
    <Placemark>
      <name>LRF - LONG REEF</name>
      <description>State: NSW</description>
      <Point>
        <coordinates>151.3213888888889,-33.74194444444444,0</coordinates>
      </Point>
    </Placemark>
    <Placemark>
      <name>MKV - MACKSVILLE</name>
      <description>State: NSW</description>
      <Point>
        <coordinates>152.9152777777778,-30.708333333333332,0</coordinates>
      </Point>
    </Placemark>
    <Placemark>
      <name>MOP - MANGOPLAH</name>
      <description>State: NSW</description>
      <Point>
        <coordinates>147.24166666666665,-35.391666666666666,0</coordinates>
      </Point>
    </Placemark>
    <Placemark>
      <name>MAL - MANILLA</name>
      <description>State: NSW</description>
      <Point>
        <coordinates>150.72361111111113,-30.75,0</coordinates>
      </Point>
    </Placemark>
    <Placemark>
      <name>MNLY - MANLY</name>
      <description>State: NSW</description>
      <Point>
        <coordinates>151.2888888888889,-33.79833333333333,0</coordinates>
      </Point>
    </Placemark>
    <Placemark>
      <name>MRBR - MAROUBRA BEACH</name>
      <description>State: NSW</description>
      <Point>
        <coordinates>151.25666666666666,-33.95,0</coordinates>
      </Point>
    </Placemark>
    <Placemark>
      <name>MAR - MARRAR</name>
      <description>State: NSW</description>
      <Point>
        <coordinates>147.35,-34.825,0</coordinates>
      </Point>
    </Placemark>
    <Placemark>
      <name>MYF - MAYFIELD</name>
      <description>State: NSW</description>
      <Point>
        <coordinates>150.625,-33.962500000000006,0</coordinates>
      </Point>
    </Placemark>
    <Placemark>
      <name>MEG - MENANGLE</name>
      <description>State: NSW</description>
      <Point>
        <coordinates>150.74166666666665,-34.125,0</coordinates>
      </Point>
    </Placemark>
    <Placemark>
      <name>MHGO - MICHELAGO</name>
      <description>State: NSW</description>
      <Point>
        <coordinates>149.16666666666666,-35.71666666666667,0</coordinates>
      </Point>
    </Placemark>
    <Placemark>
      <name>MCRO - MILLS CROSS</name>
      <description>State: NSW</description>
      <Point>
        <coordinates>149.42472222222221,-35.37083333333334,0</coordinates>
      </Point>
    </Placemark>
    <Placemark>
      <name>MPSC - MOORE PARK SUPA CENTRE</name>
      <description>State: NSW</description>
      <Point>
        <coordinates>151.2147222222222,-33.90277777777778,0</coordinates>
      </Point>
    </Placemark>
    <Placemark>
      <name>MSV - MOSS VALE</name>
      <description>State: NSW</description>
      <Point>
        <coordinates>150.42166666666665,-34.525277777777774,0</coordinates>
      </Point>
    </Placemark>
    <Placemark>
      <name>MTB - MOUNT BOYCE</name>
      <description>State: NSW</description>
      <Point>
        <coordinates>150.27416666666667,-33.618611111111115,0</coordinates>
      </Point>
    </Placemark>
    <Placemark>
      <name>MTBA - MOUNT CORAMBA</name>
      <description>State: NSW</description>
      <Point>
        <coordinates>153.05,-30.22083333333333,0</coordinates>
      </Point>
    </Placemark>
    <Placemark>
      <name>MOB - MOUNT MOOMBIL</name>
      <description>State: NSW</description>
      <Point>
        <coordinates>152.85972222222222,-30.31722222222222,0</coordinates>
      </Point>
    </Placemark>
    <Placemark>
      <name>MPG - MOUNT PALERANG</name>
      <description>State: NSW</description>
      <Point>
        <coordinates>149.6,-35.43333333333333,0</coordinates>
      </Point>
    </Placemark>
    <Placemark>
      <name>SOV - MOUNT SOMERVILLE RADAR</name>
      <description>State: NSW</description>
      <Point>
        <coordinates>153.4261111111111,-28.215555555555554,0</coordinates>
      </Point>
    </Placemark>
    <Placemark>
      <name>MVI - MOUNT VICTORIA</name>
      <description>State: NSW</description>
      <Point>
        <coordinates>150.25,-33.583333333333336,0</coordinates>
      </Point>
    </Placemark>
    <Placemark>
      <name>MTWG - MOUNT WARNING</name>
      <description>State: NSW</description>
      <Point>
        <coordinates>153.26666666666668,-28.4,0</coordinates>
      </Point>
    </Placemark>
    <Placemark>
      <name>MBBY - MULLUMBIMBY</name>
      <description>State: NSW</description>
      <Point>
        <coordinates>153.5,-28.55,0</coordinates>
      </Point>
    </Placemark>
    <Placemark>
      <name>MMM - MURRUMBATEMAN</name>
      <description>State: NSW</description>
      <Point>
        <coordinates>149.025,-34.97222222222222,0</coordinates>
      </Point>
    </Placemark>
    <Placemark>
      <name>MUI - MURRURUNDI</name>
      <description>State: NSW</description>
      <Point>
        <coordinates>150.83333333333334,-31.766666666666666,0</coordinates>
      </Point>
    </Placemark>
    <Placemark>
      <name>MUR - MURWILLUMBAH</name>
      <description>State: NSW</description>
      <Point>
        <coordinates>153.3972222222222,-28.325,0</coordinates>
      </Point>
    </Placemark>
    <Placemark>
      <name>NHS - NAMBUCCA HEADS</name>
      <description>State: NSW</description>
      <Point>
        <coordinates>153.00833333333333,-30.644444444444446,0</coordinates>
      </Point>
    </Placemark>
    <Placemark>
      <name>NAMA - NAROOMA</name>
      <description>State: NSW</description>
      <Point>
        <coordinates>150.13333333333333,-36.2,0</coordinates>
      </Point>
    </Placemark>
    <Placemark>
      <name>NKBO - NECKARBOO</name>
      <description>State: NSW</description>
      <Point>
        <coordinates>144.61666666666667,-32.06666666666667,0</coordinates>
      </Point>
    </Placemark>
    <Placemark>
      <name>NEM - NEMINGHA</name>
      <description>State: NSW</description>
      <Point>
        <coordinates>150.99166666666665,-31.125,0</coordinates>
      </Point>
    </Placemark>
    <Placemark>
      <name>NPBR - NEPEAN BRIDGE</name>
      <description>State: NSW</description>
      <Point>
        <coordinates>150.65916666666666,-33.76416666666667,0</coordinates>
      </Point>
    </Placemark>
    <Placemark>
      <name>NTT - NIMBIN TV TOWERS</name>
      <description>State: NSW</description>
      <Point>
        <coordinates>153.29166666666666,-28.541666666666668,0</coordinates>
      </Point>
    </Placemark>
    <Placemark>
      <name>NBB - NOBBYS HEAD</name>
      <description>State: NSW</description>
      <Point>
        <coordinates>151.79,-32.915,0</coordinates>
      </Point>
    </Placemark>
    <Placemark>
      <name>NOHD - NORTH HEAD</name>
      <description>State: NSW</description>
      <Point>
        <coordinates>151.29166666666666,-33.82166666666667,0</coordinates>
      </Point>
    </Placemark>
    <Placemark>
      <name>NSTA - NORTH STAR</name>
      <description>State: NSW</description>
      <Point>
        <coordinates>150.41666666666666,-28.916666666666668,0</coordinates>
      </Point>
    </Placemark>
    <Placemark>
      <name>NUN - NUNDLE</name>
      <description>State: NSW</description>
      <Point>
        <coordinates>151.125,-31.466666666666665,0</coordinates>
      </Point>
    </Placemark>
    <Placemark>
      <name>ONPK - ORAN PARK</name>
      <description>State: NSW</description>
      <Point>
        <coordinates>150.74194444444444,-34.00833333333333,0</coordinates>
      </Point>
    </Placemark>
    <Placemark>
      <name>PRT - PARRAMATTA</name>
      <description>State: NSW</description>
      <Point>
        <coordinates>151.005,-33.81666666666667,0</coordinates>
      </Point>
    </Placemark>
    <Placemark>
      <name>PAA - PATONGA</name>
      <description>State: NSW</description>
      <Point>
        <coordinates>151.2625,-33.55166666666666,0</coordinates>
      </Point>
    </Placemark>
    <Placemark>
      <name>PENH - PENNANT HILLS STROBE</name>
      <description>State: NSW</description>
      <Point>
        <coordinates>151.07,-33.74,0</coordinates>
      </Point>
    </Placemark>
    <Placemark>
      <name>PENT - PENRITH</name>
      <description>State: NSW</description>
      <Point>
        <coordinates>150.7,-33.75833333333333,0</coordinates>
      </Point>
    </Placemark>
    <Placemark>
      <name>PIL - PICKET HILL</name>
      <description>State: NSW</description>
      <Point>
        <coordinates>152.98333333333332,-30.570833333333333,0</coordinates>
      </Point>
    </Placemark>
    <Placemark>
      <name>PNP - PICNIC PT</name>
      <description>State: NSW</description>
      <Point>
        <coordinates>151.00166666666667,-33.980000000000004,0</coordinates>
      </Point>
    </Placemark>
    <Placemark>
      <name>PIC - PICTON</name>
      <description>State: NSW</description>
      <Point>
        <coordinates>150.61666666666667,-34.175,0</coordinates>
      </Point>
    </Placemark>
    <Placemark>
      <name>PIG - PIGGERY</name>
      <description>State: NSW</description>
      <Point>
        <coordinates>146.79166666666666,-36.0125,0</coordinates>
      </Point>
    </Placemark>
    <Placemark>
      <name>PSS - POINT STEPHENS LIGHTHOUSE</name>
      <description>State: NSW</description>
      <Point>
        <coordinates>152.20833333333331,-32.74583333333334,0</coordinates>
      </Point>
    </Placemark>
    <Placemark>
      <name>PSP - PROSPECT RESV</name>
      <description>State: NSW</description>
      <Point>
        <coordinates>150.91666666666666,-33.81666666666667,0</coordinates>
      </Point>
    </Placemark>
    <Placemark>
      <name>DNGR - PT DANGER</name>
      <description>State: NSW</description>
      <Point>
        <coordinates>153.55166666666668,-28.165,0</coordinates>
      </Point>
    </Placemark>
    <Placemark>
      <name>PUTY - PUTTY</name>
      <description>State: NSW</description>
      <Point>
        <coordinates>150.75,-32.96666666666667,0</coordinates>
      </Point>
    </Placemark>
    <Placemark>
      <name>QBN - QUEANBEYAN</name>
      <description>State: NSW</description>
      <Point>
        <coordinates>149.24249999999998,-35.35916666666667,0</coordinates>
      </Point>
    </Placemark>
    <Placemark>
      <name>QNDI - QUIRINDI</name>
      <description>State: NSW</description>
      <Point>
        <coordinates>150.51388888888889,-31.490555555555556,0</coordinates>
      </Point>
    </Placemark>
    <Placemark>
      <name>RER - RED ROCK</name>
      <description>State: NSW</description>
      <Point>
        <coordinates>153.225,-29.98611111111111,0</coordinates>
      </Point>
    </Placemark>
    <Placemark>
      <name>REDF - REDFERN RAILWAY STATION</name>
      <description>State: NSW</description>
      <Point>
        <coordinates>151.19861111111112,-33.89194444444444,0</coordinates>
      </Point>
    </Placemark>
    <Placemark>
      <name>RIV - RIVERINA CAMPUS</name>
      <description>State: NSW</description>
      <Point>
        <coordinates>147.34583333333333,-35.05555555555555,0</coordinates>
      </Point>
    </Placemark>
    <Placemark>
      <name>RKWC - ROOKWOOD CEMETERY</name>
      <description>State: NSW</description>
      <Point>
        <coordinates>151.055,-33.875,0</coordinates>
      </Point>
    </Placemark>
    <Placemark>
      <name>RSH - ROSEHILL RACECOURSE</name>
      <description>State: NSW</description>
      <Point>
        <coordinates>151.025,-33.825,0</coordinates>
      </Point>
    </Placemark>
    <Placemark>
      <name>RVB - ROSEVILLE BRIDGE</name>
      <description>State: NSW</description>
      <Point>
        <coordinates>151.2,-33.766666666666666,0</coordinates>
      </Point>
    </Placemark>
    <Placemark>
      <name>RCB - RUSH CUTTERS BAY</name>
      <description>State: NSW</description>
      <Point>
        <coordinates>151.23222222222222,-33.87361111111111,0</coordinates>
      </Point>
    </Placemark>
    <Placemark>
      <name>RYB - RYDE BRIDGE</name>
      <description>State: NSW</description>
      <Point>
        <coordinates>151.09166666666667,-33.825,0</coordinates>
      </Point>
    </Placemark>
    <Placemark>
      <name>SWTE - SAWTELL</name>
      <description>State: NSW</description>
      <Point>
        <coordinates>153.1,-30.366666666666667,0</coordinates>
      </Point>
    </Placemark>
    <Placemark>
      <name>SECF - SEA CLIFF BRIDGE</name>
      <description>State: NSW</description>
      <Point>
        <coordinates>150.9752777777778,-34.25277777777778,0</coordinates>
      </Point>
    </Placemark>
    <Placemark>
      <name>SYI - SNOWY INTERSECTION</name>
      <description>State: NSW</description>
      <Point>
        <coordinates>147.86833333333334,-35.18333333333333,0</coordinates>
      </Point>
    </Placemark>
    <Placemark>
      <name>SOFA - SOFALA</name>
      <description>State: NSW</description>
      <Point>
        <coordinates>149.68333333333334,-33.016666666666666,0</coordinates>
      </Point>
    </Placemark>
    <Placemark>
      <name>SRP - SOLDIERS POINT</name>
      <description>State: NSW</description>
      <Point>
        <coordinates>152.0625,-32.7,0</coordinates>
      </Point>
    </Placemark>
    <Placemark>
      <name>SMN - SOMERTON</name>
      <description>State: NSW</description>
      <Point>
        <coordinates>150.63666666666666,-30.941666666666666,0</coordinates>
      </Point>
    </Placemark>
    <Placemark>
      <name>SPIT - SPIT BRIDGE</name>
      <description>State: NSW</description>
      <Point>
        <coordinates>151.2461111111111,-33.80277777777778,0</coordinates>
      </Point>
    </Placemark>
    <Placemark>
      <name>SRR - SPLIT ROCK RESV</name>
      <description>State: NSW</description>
      <Point>
        <coordinates>150.7,-30.575,0</coordinates>
      </Point>
    </Placemark>
    <Placemark>
      <name>SOI - SPLIT SOLITARY ISLAND</name>
      <description>State: NSW</description>
      <Point>
        <coordinates>153.17916666666665,-30.241666666666667,0</coordinates>
      </Point>
    </Placemark>
    <Placemark>
      <name>SIS - ST IVES SHOWGROUND</name>
      <description>State: NSW</description>
      <Point>
        <coordinates>151.18333333333334,-33.705000000000005,0</coordinates>
      </Point>
    </Placemark>
    <Placemark>
      <name>SLL - STANWELL PARK</name>
      <description>State: NSW</description>
      <Point>
        <coordinates>150.98888888888888,-34.22833333333333,0</coordinates>
      </Point>
    </Placemark>
    <Placemark>
      <name>STOT - STOTTS ISLAND</name>
      <description>State: NSW</description>
      <Point>
        <coordinates>153.50083333333333,-28.269166666666667,0</coordinates>
      </Point>
    </Placemark>
    <Placemark>
      <name>SRO - STROUD ROAD</name>
      <description>State: NSW</description>
      <Point>
        <coordinates>151.91833333333332,-32.34666666666667,0</coordinates>
      </Point>
    </Placemark>
    <Placemark>
      <name>SUI - STURT INTERSECTION</name>
      <description>State: NSW</description>
      <Point>
        <coordinates>147.79333333333332,-35.22,0</coordinates>
      </Point>
    </Placemark>
    <Placemark>
      <name>SLMT - SUGARLOAF MT</name>
      <description>State: NSW</description>
      <Point>
        <coordinates>150.875,-31.433333333333334,0</coordinates>
      </Point>
    </Placemark>
    <Placemark>
      <name>SUG - SUGARLOAF PT</name>
      <description>State: NSW</description>
      <Point>
        <coordinates>152.5402777777778,-32.44444444444444,0</coordinates>
      </Point>
    </Placemark>
    <Placemark>
      <name>SUD - SUTHERLAND</name>
      <description>State: NSW</description>
      <Point>
        <coordinates>151.05555555555557,-34.038333333333334,0</coordinates>
      </Point>
    </Placemark>
    <Placemark>
      <name>SUE - SUTTON ROAD OVERPASS</name>
      <description>State: NSW</description>
      <Point>
        <coordinates>149.25833333333333,-35.18333333333333,0</coordinates>
      </Point>
    </Placemark>
    <Placemark>
      <name>SCTY - SYDNEY CBD</name>
      <description>State: NSW</description>
      <Point>
        <coordinates>151.2,-33.86666666666667,0</coordinates>
      </Point>
    </Placemark>
    <Placemark>
      <name>SCG - SYDNEY CRICKET GROUND</name>
      <description>State: NSW</description>
      <Point>
        <coordinates>151.22333333333333,-33.891666666666666,0</coordinates>
      </Point>
    </Placemark>
    <Placemark>
      <name>SYHD - SYDNEY HEADS</name>
      <description>State: NSW</description>
      <Point>
        <coordinates>151.29166666666666,-33.833333333333336,0</coordinates>
      </Point>
    </Placemark>
    <Placemark>
      <name>TBL - TABULAM</name>
      <description>State: NSW</description>
      <Point>
        <coordinates>152.5686111111111,-28.886666666666667,0</coordinates>
      </Point>
    </Placemark>
    <Placemark>
      <name>TAGO - TARAGO</name>
      <description>State: NSW</description>
      <Point>
        <coordinates>149.65472222222223,-35.069722222222225,0</coordinates>
      </Point>
    </Placemark>
    <Placemark>
      <name>TRT - TARCUTTA</name>
      <description>State: NSW</description>
      <Point>
        <coordinates>147.73888888888888,-35.28,0</coordinates>
      </Point>
    </Placemark>
    <Placemark>
      <name>THK - THE OAKS</name>
      <description>State: NSW</description>
      <Point>
        <coordinates>150.57777777777778,-34.07777777777778,0</coordinates>
      </Point>
    </Placemark>
    <Placemark>
      <name>RCK - THE ROCK</name>
      <description>State: NSW</description>
      <Point>
        <coordinates>147.07083333333333,-35.275,0</coordinates>
      </Point>
    </Placemark>
    <Placemark>
      <name>APST - THE STAMFORD (HOTEL)</name>
      <description>State: NSW</description>
      <Point>
        <coordinates>151.18555555555557,-33.93111111111111,0</coordinates>
      </Point>
    </Placemark>
    <Placemark>
      <name>TUK - TUCKERS KNOB</name>
      <description>State: NSW</description>
      <Point>
        <coordinates>152.98055555555555,-30.343333333333334,0</coordinates>
      </Point>
    </Placemark>
    <Placemark>
      <name>TUMB - TUMBULGUM</name>
      <description>State: NSW</description>
      <Point>
        <coordinates>153.46666666666667,-28.278333333333332,0</coordinates>
      </Point>
    </Placemark>
    <Placemark>
      <name>TWRN - TWO RN</name>
      <description>State: NSW</description>
      <Point>
        <coordinates>150.88555555555556,-33.94222222222222,0</coordinates>
      </Point>
    </Placemark>
    <Placemark>
      <name>UKER - UKEREBAGH ISLAND</name>
      <description>State: NSW</description>
      <Point>
        <coordinates>153.54611111111112,-28.180555555555557,0</coordinates>
      </Point>
    </Placemark>
    <Placemark>
      <name>UDA - ULLADULLA</name>
      <description>State: NSW</description>
      <Point>
        <coordinates>150.48333333333332,-35.35,0</coordinates>
      </Point>
    </Placemark>
    <Placemark>
      <name>URA - URANQUINTY</name>
      <description>State: NSW</description>
      <Point>
        <coordinates>147.2458333333333,-35.19166666666666,0</coordinates>
      </Point>
    </Placemark>
    <Placemark>
      <name>URU - URUNGA</name>
      <description>State: NSW</description>
      <Point>
        <coordinates>153.01666666666668,-30.491666666666667,0</coordinates>
      </Point>
    </Placemark>
    <Placemark>
      <name>WBH - WALLABADAH</name>
      <description>State: NSW</description>
      <Point>
        <coordinates>150.825,-31.538333333333334,0</coordinates>
      </Point>
    </Placemark>
    <Placemark>
      <name>WGR - WALLANGARRA</name>
      <description>State: NSW</description>
      <Point>
        <coordinates>151.93333333333334,-28.916666666666668,0</coordinates>
      </Point>
    </Placemark>
    <Placemark>
      <name>WDN - WANDANDIAN</name>
      <description>State: NSW</description>
      <Point>
        <coordinates>150.51666666666668,-35.083333333333336,0</coordinates>
      </Point>
    </Placemark>
    <Placemark>
      <name>WAG - WANTABADGERY</name>
      <description>State: NSW</description>
      <Point>
        <coordinates>147.72222222222223,-35.05833333333333,0</coordinates>
      </Point>
    </Placemark>
    <Placemark>
      <name>WAD - WARRAGAMBA DAM</name>
      <description>State: NSW</description>
      <Point>
        <coordinates>150.59166666666667,-33.885,0</coordinates>
      </Point>
    </Placemark>
    <Placemark>
      <name>WASL - WARRAL SILO</name>
      <description>State: NSW</description>
      <Point>
        <coordinates>150.85833333333332,-31.15,0</coordinates>
      </Point>
    </Placemark>
    <Placemark>
      <name>WFM - WARWICK FARM</name>
      <description>State: NSW</description>
      <Point>
        <coordinates>150.94583333333333,-33.91111111111111,0</coordinates>
      </Point>
    </Placemark>
    <Placemark>
      <name>WFL - WATERFALL</name>
      <description>State: NSW</description>
      <Point>
        <coordinates>150.99166666666665,-34.13611111111111,0</coordinates>
      </Point>
    </Placemark>
    <Placemark>
      <name>WEK - WERRIS CREEK</name>
      <description>State: NSW</description>
      <Point>
        <coordinates>150.65,-31.3575,0</coordinates>
      </Point>
    </Placemark>
    <Placemark>
      <name>WST - WESTMEAD</name>
      <description>State: NSW</description>
      <Point>
        <coordinates>150.98666666666665,-33.80333333333333,0</coordinates>
      </Point>
    </Placemark>
    <Placemark>
      <name>WIE - WIMMERA</name>
      <description>State: NSW</description>
      <Point>
        <coordinates>150.81666666666666,-31.15833333333333,0</coordinates>
      </Point>
    </Placemark>
    <Placemark>
      <name>WDU - WIRRADGURIE</name>
      <description>State: NSW</description>
      <Point>
        <coordinates>152.06666666666666,-31.9,0</coordinates>
      </Point>
    </Placemark>
    <Placemark>
      <name>WSFR - WISEMANS FERRY</name>
      <description>State: NSW</description>
      <Point>
        <coordinates>150.98777777777775,-33.38,0</coordinates>
      </Point>
    </Placemark>
    <Placemark>
      <name>WGG - WOOLGOOLGA</name>
      <description>State: NSW</description>
      <Point>
        <coordinates>153.2,-30.1125,0</coordinates>
      </Point>
    </Placemark>
    <Placemark>
      <name>WOI - WOOLLAMIA</name>
      <description>State: NSW</description>
      <Point>
        <coordinates>150.6602777777778,-35.01972222222222,0</coordinates>
      </Point>
    </Placemark>
    <Placemark>
      <name>WAM - WOOMARGAMA</name>
      <description>State: NSW</description>
      <Point>
        <coordinates>147.2486111111111,-35.833333333333336,0</coordinates>
      </Point>
    </Placemark>
    <Placemark>
      <name>WMF - WYMAH FERRY</name>
      <description>State: NSW</description>
      <Point>
        <coordinates>147.2625,-36.041666666666664,0</coordinates>
      </Point>
    </Placemark>
    <Placemark>
      <name>ASST - YASS TOWNSHIP</name>
      <description>State: NSW</description>
      <Point>
        <coordinates>148.91666666666666,-34.85,0</coordinates>
      </Point>
    </Placemark>
  </Document>
</kml>