<?xml version='1.0' encoding='utf-8'?>
<kml xmlns="http://www.opengis.net/kml/2.2"><Document><Placemark><name>ACADEMY</name><description>Code: ACE</description><Point><coordinates>145.18055555555554,-37.895833333333336,0</coordinates></Point></Placemark><Placemark><name>ALBERT PARK LAKE</name><description>Code: APL</description><Point><coordinates>144.975,-37.855555555555554,0</coordinates></Point></Placemark><Placemark><name>ALTONA</name><description>Code: ALOA</description><Point><coordinates>144.85,-37.86666666666667,0</coordinates></Point></Placemark><Placemark><name>ALTONA SOUTH</name><description>Code: ALTS</description><Point><coordinates>144.81,-37.87888888888889,0</coordinates></Point></Placemark><Placemark><name>ANGLESEA</name><description>Code: ANG</description><Point><coordinates>144.18333333333334,-38.416666666666664,0</coordinates></Point></Placemark><Placemark><name>ATV10</name><description>Code: ATV</description><Point><coordinates>145.16805555555555,-37.85277777777778,0</coordinates></Point></Placemark><Placemark><name>BACCHUS MARSH TOWNSHIP</name><description>Code: BMP</description><Point><coordinates>144.4388888888889,-37.675,0</coordinates></Point></Placemark><Placemark><name>BALMORAL</name><description>Code: BOA</description><Point><coordinates>141.83333333333334,-37.25,0</coordinates></Point></Placemark><Placemark><name>BARANDUDA TOWERS</name><description>Code: BDT</description><Point><coordinates>146.85,-36.25,0</coordinates></Point></Placemark><Placemark><name>BARWON PRISON</name><description>Code: BPN</description><Point><coordinates>144.35,-37.983333333333334,0</coordinates></Point></Placemark><Placemark><name>BAYWEST</name><description>Code: BAW</description><Point><coordinates>144.92666666666665,-38.0,0</coordinates></Point></Placemark><Placemark><name>BEECHWORTH</name><description>Code: BCH</description><Point><coordinates>146.6888888888889,-36.358333333333334,0</coordinates></Point></Placemark><Placemark><name>BEVERIDGE</name><description>Code: BVG</description><Point><coordinates>144.97083333333333,-37.47222222222222,0</coordinates></Point></Placemark><Placemark><name>BOLTE BRIDGE</name><description>Code: BLTB</description><Point><coordinates>144.9322222222222,-37.81916666666667,0</coordinates></Point></Placemark><Placemark><name>BONEGILLA</name><description>Code: BNG</description><Point><coordinates>147.0125,-36.144444444444446,0</coordinates></Point></Placemark><Placemark><name>BRIGHTON</name><description>Code: BTO</description><Point><coordinates>144.9861111111111,-37.91111111111111,0</coordinates></Point></Placemark><Placemark><name>BROADFORD</name><description>Code: BDF</description><Point><coordinates>145.04166666666666,-37.208333333333336,0</coordinates></Point></Placemark><Placemark><name>BROOKLYN</name><description>Code: BYN</description><Point><coordinates>144.85833333333332,-37.82777777777778,0</coordinates></Point></Placemark><Placemark><name>BUNGIL BRIDGE</name><description>Code: BUG</description><Point><coordinates>147.35,-36.05,0</coordinates></Point></Placemark><Placemark><name>CARAMUT</name><description>Code: CAU</description><Point><coordinates>142.51666666666668,-37.96666666666667,0</coordinates></Point></Placemark><Placemark><name>CARDINIA RESV</name><description>Code: CARE</description><Point><coordinates>145.41666666666666,-37.958333333333336,0</coordinates></Point></Placemark><Placemark><name>CARRUM</name><description>Code: CARR</description><Point><coordinates>145.11944444444444,-38.07416666666667,0</coordinates></Point></Placemark><Placemark><name>CERBERUS</name><description>Code: CERB</description><Point><coordinates>145.0,-37.96666666666667,0</coordinates></Point></Placemark><Placemark><name>CHILTERN</name><description>Code: CHN</description><Point><coordinates>146.60694444444445,-36.145833333333336,0</coordinates></Point></Placemark><Placemark><name>CLIFFY ISLAND</name><description>Code: CFI</description><Point><coordinates>146.70222222222222,-38.95138888888889,0</coordinates></Point></Placemark><Placemark><name>CLIFTON SPRINGS</name><description>Code: CLS</description><Point><coordinates>144.56666666666666,-38.15,0</coordinates></Point></Placemark><Placemark><name>COCKATOO</name><description>Code: CKT</description><Point><coordinates>145.49499999999998,-37.93833333333333,0</coordinates></Point></Placemark><Placemark><name>COLBINABBIN</name><description>Code: CBI</description><Point><coordinates>144.8,-36.583333333333336,0</coordinates></Point></Placemark><Placemark><name>COWWARR</name><description>Code: COWR</description><Point><coordinates>146.69305555555556,-38.01444444444444,0</coordinates></Point></Placemark><Placemark><name>CRAIGIEBURN OVERPASS</name><description>Code: CGB</description><Point><coordinates>144.9388888888889,-37.60277777777778,0</coordinates></Point></Placemark><Placemark><name>CRESWICK</name><description>Code: CWK</description><Point><coordinates>143.9,-37.43333333333333,0</coordinates></Point></Placemark><Placemark><name>DARLIMURA</name><description>Code: DARL</description><Point><coordinates>146.21527777777777,-38.35388888888889,0</coordinates></Point></Placemark><Placemark><name>DAYLESFORD</name><description>Code: DFD</description><Point><coordinates>144.15,-37.35,0</coordinates></Point></Placemark><Placemark><name>DEDERANG SUBSTATION</name><description>Code: DSS</description><Point><coordinates>146.98999999999998,-36.45333333333333,0</coordinates></Point></Placemark><Placemark><name>DONCASTER SHOPPINGTOWN</name><description>Code: DSN</description><Point><coordinates>145.125,-37.78333333333333,0</coordinates></Point></Placemark><Placemark><name>DROMANA</name><description>Code: DRM</description><Point><coordinates>144.96666666666667,-38.333333333333336,0</coordinates></Point></Placemark><Placemark><name>DROUIN</name><description>Code: DRN</description><Point><coordinates>145.85,-38.13333333333333,0</coordinates></Point></Placemark><Placemark><name>ELDORADO</name><description>Code: ELDO</description><Point><coordinates>146.52083333333334,-36.31111111111111,0</coordinates></Point></Placemark><Placemark><name>EPPING</name><description>Code: EPPG</description><Point><coordinates>145.025,-37.643055555555556,0</coordinates></Point></Placemark><Placemark><name>FLEMINGTON</name><description>Code: FGN</description><Point><coordinates>144.91111111111113,-37.793055555555554,0</coordinates></Point></Placemark><Placemark><name>FLYNN</name><description>Code: FYN</description><Point><coordinates>146.67333333333332,-38.193888888888885,0</coordinates></Point></Placemark><Placemark><name>FREEWAY OVERPASS</name><description>Code: FWO</description><Point><coordinates>144.99388888888888,-37.79527777777778,0</coordinates></Point></Placemark><Placemark><name>GEMBROOK</name><description>Code: GEK</description><Point><coordinates>145.55,-37.95,0</coordinates></Point></Placemark><Placemark><name>GLENBURN</name><description>Code: GBR</description><Point><coordinates>145.42222222222222,-37.425,0</coordinates></Point></Placemark><Placemark><name>GMH</name><description>Code: GMH</description><Point><coordinates>145.23888888888888,-38.00833333333333,0</coordinates></Point></Placemark><Placemark><name>GRANYA</name><description>Code: GRAA</description><Point><coordinates>147.31666666666666,-36.111111111111114,0</coordinates></Point></Placemark><Placemark><name>HEATHCOTE TOWNSHIP</name><description>Code: HEAT</description><Point><coordinates>144.7,-36.916666666666664,0</coordinates></Point></Placemark><Placemark><name>HUME WEIR WALL</name><description>Code: HWW</description><Point><coordinates>147.025,-36.111111111111114,0</coordinates></Point></Placemark><Placemark><name>KALKALLO</name><description>Code: KAO</description><Point><coordinates>144.945,-37.53666666666666,0</coordinates></Point></Placemark><Placemark><name>KIEWA</name><description>Code: KIWA</description><Point><coordinates>147.00833333333333,-36.25833333333333,0</coordinates></Point></Placemark><Placemark><name>KILMORE</name><description>Code: KIM</description><Point><coordinates>144.95416666666665,-37.3,0</coordinates></Point></Placemark><Placemark><name>KILMORE GAP</name><description>Code: KMG</description><Point><coordinates>144.98333333333332,-37.3,0</coordinates></Point></Placemark><Placemark><name>KINGLAKE</name><description>Code: KGLE</description><Point><coordinates>145.35,-37.52222222222222,0</coordinates></Point></Placemark><Placemark><name>KINGSTON CENTRE</name><description>Code: KINN</description><Point><coordinates>145.07666666666665,-37.95666666666667,0</coordinates></Point></Placemark><Placemark><name>KONGWAK</name><description>Code: KNW</description><Point><coordinates>145.71666666666667,-38.516666666666666,0</coordinates></Point></Placemark><Placemark><name>KYNETON</name><description>Code: KTN</description><Point><coordinates>144.45833333333331,-37.24722222222222,0</coordinates></Point></Placemark><Placemark><name>LAKE CORANGAMITE</name><description>Code: LCR</description><Point><coordinates>143.51666666666668,-38.1,0</coordinates></Point></Placemark><Placemark><name>LAKE HINDMARSH</name><description>Code: LKH</description><Point><coordinates>141.86666666666667,-36.11666666666667,0</coordinates></Point></Placemark><Placemark><name>LAKES ENTRANCE</name><description>Code: LKEE</description><Point><coordinates>148.0,-37.86666666666667,0</coordinates></Point></Placemark><Placemark><name>LANCEFIELD</name><description>Code: LCD</description><Point><coordinates>144.7277777777778,-37.27777777777778,0</coordinates></Point></Placemark><Placemark><name>LATROBE UNIVERSITY</name><description>Code: LUY</description><Point><coordinates>145.05,-37.71666666666667,0</coordinates></Point></Placemark><Placemark><name>LAVERTON</name><description>Code: LVAB</description><Point><coordinates>144.7458333333333,-37.86361111111111,0</coordinates></Point></Placemark><Placemark><name>LAVERTON BOM TOWER</name><description>Code: TON</description><Point><coordinates>144.7552777777778,-37.85527777777778,0</coordinates></Point></Placemark><Placemark><name>LEOPOLD</name><description>Code: LPD</description><Point><coordinates>144.46666666666667,-38.19166666666666,0</coordinates></Point></Placemark><Placemark><name>LINDENOW SOUTH</name><description>Code: LOWS</description><Point><coordinates>147.43333333333334,-37.82833333333333,0</coordinates></Point></Placemark><Placemark><name>LITTLE RIVER MOUTH</name><description>Code: LRM</description><Point><coordinates>144.58333333333334,-38.00694444444444,0</coordinates></Point></Placemark><Placemark><name>LOCH SPORT</name><description>Code: LSR</description><Point><coordinates>147.58333333333334,-38.05,0</coordinates></Point></Placemark><Placemark><name>LOGIC CENTRE</name><description>Code: LOGI</description><Point><coordinates>146.71833333333333,-36.07666666666667,0</coordinates></Point></Placemark><Placemark><name>LORNE TOWNSHIP</name><description>Code: LORN</description><Point><coordinates>143.97,-38.54333333333333,0</coordinates></Point></Placemark><Placemark><name>MARTHA PT</name><description>Code: MHT</description><Point><coordinates>144.98333333333332,-38.31666666666667,0</coordinates></Point></Placemark><Placemark><name>MARYSVILLE</name><description>Code: MVL</description><Point><coordinates>145.75,-37.516666666666666,0</coordinates></Point></Placemark><Placemark><name>MCGAURAN BEACH</name><description>Code: MGBH</description><Point><coordinates>147.0991666666667,-38.44888888888889,0</coordinates></Point></Placemark><Placemark><name>MELBOURNE CBD</name><description>Code: MCTY</description><Point><coordinates>144.95833333333331,-37.80833333333333,0</coordinates></Point></Placemark><Placemark><name>MELBOURNE CRICKET GROUND</name><description>Code: MCG</description><Point><coordinates>144.98333333333332,-37.82,0</coordinates></Point></Placemark><Placemark><name>MELTON SOUTH</name><description>Code: MELS</description><Point><coordinates>144.56666666666666,-37.68333333333333,0</coordinates></Point></Placemark><Placemark><name>MERRIJIG</name><description>Code: MRJ</description><Point><coordinates>146.25,-37.11666666666667,0</coordinates></Point></Placemark><Placemark><name>MITIAMO</name><description>Code: MITI</description><Point><coordinates>144.23,-36.211666666666666,0</coordinates></Point></Placemark><Placemark><name>MOONEE VALLEY RACECOURSE</name><description>Code: MVC</description><Point><coordinates>144.93333333333334,-37.766666666666666,0</coordinates></Point></Placemark><Placemark><name>MOUNT COTTRELL</name><description>Code: MCOT</description><Point><coordinates>144.62,-37.763333333333335,0</coordinates></Point></Placemark><Placemark><name>MOUNT MACEDON</name><description>Code: MCD</description><Point><coordinates>144.57638888888889,-37.375,0</coordinates></Point></Placemark><Placemark><name>MOUNT PIPER</name><description>Code: PIPR</description><Point><coordinates>145.00333333333333,-37.205000000000005,0</coordinates></Point></Placemark><Placemark><name>MOUNT WELLINGTON</name><description>Code: MTWN</description><Point><coordinates>146.81,-37.559999999999995,0</coordinates></Point></Placemark><Placemark><name>NARRE WARREN</name><description>Code: NRW</description><Point><coordinates>145.3,-38.016666666666666,0</coordinates></Point></Placemark><Placemark><name>NORTH EAST QUARRY</name><description>Code: NEQ</description><Point><coordinates>144.58333333333334,-37.94166666666666,0</coordinates></Point></Placemark><Placemark><name>POINT ORMOND</name><description>Code: PTOM</description><Point><coordinates>144.98333333333332,-37.88333333333333,0</coordinates></Point></Placemark><Placemark><name>PORT CAMPBELL</name><description>Code: POMP</description><Point><coordinates>142.99499999999998,-38.62,0</coordinates></Point></Placemark><Placemark><name>PORT PHILLIP HEADS</name><description>Code: PIPS</description><Point><coordinates>144.63333333333333,-38.29333333333333,0</coordinates></Point></Placemark><Placemark><name>POWERLINE CROSSING</name><description>Code: PWLC</description><Point><coordinates>144.7777777777778,-37.612500000000004,0</coordinates></Point></Placemark><Placemark><name>PYALONG</name><description>Code: PYA</description><Point><coordinates>144.855,-37.11666666666667,0</coordinates></Point></Placemark><Placemark><name>PYKES CREEK RESV</name><description>Code: PYK</description><Point><coordinates>144.29444444444445,-37.6,0</coordinates></Point></Placemark><Placemark><name>RED CLIFFS</name><description>Code: RCS</description><Point><coordinates>142.21666666666667,-34.3,0</coordinates></Point></Placemark><Placemark><name>ROCKBANK</name><description>Code: ROK</description><Point><coordinates>144.65333333333334,-37.72777777777778,0</coordinates></Point></Placemark><Placemark><name>ROSSLYNNE RESV</name><description>Code: RLR</description><Point><coordinates>144.5638888888889,-37.46944444444445,0</coordinates></Point></Placemark><Placemark><name>SANDY PT</name><description>Code: SDP</description><Point><coordinates>145.23333333333332,-38.416666666666664,0</coordinates></Point></Placemark><Placemark><name>SHOAL</name><description>Code: SHOL</description><Point><coordinates>145.03333333333333,-38.06666666666667,0</coordinates></Point></Placemark><Placemark><name>SKIPTON</name><description>Code: SKP</description><Point><coordinates>143.36666666666667,-37.68333333333333,0</coordinates></Point></Placemark><Placemark><name>STATION PIER</name><description>Code: SNP</description><Point><coordinates>144.93055555555554,-37.84861111111111,0</coordinates></Point></Placemark><Placemark><name>SUGARLOAF RESERVOIR</name><description>Code: SGSV</description><Point><coordinates>145.3,-37.675,0</coordinates></Point></Placemark><Placemark><name>SUNBURY</name><description>Code: SBU</description><Point><coordinates>144.725,-37.583333333333336,0</coordinates></Point></Placemark><Placemark><name>SUNBURY WATER TANK</name><description>Code: SWT</description><Point><coordinates>144.6913888888889,-37.547777777777775,0</coordinates></Point></Placemark><Placemark><name>TALLANGATTA</name><description>Code: TLAG</description><Point><coordinates>147.17499999999998,-36.21666666666667,0</coordinates></Point></Placemark><Placemark><name>TALLANGATTA CAUSEWAY</name><description>Code: TLY</description><Point><coordinates>147.2458333333333,-36.21388888888889,0</coordinates></Point></Placemark><Placemark><name>TALLAROOK</name><description>Code: TLK</description><Point><coordinates>145.1,-37.1,0</coordinates></Point></Placemark><Placemark><name>THE WHARF</name><description>Code: WHF</description><Point><coordinates>144.53333333333333,-38.1,0</coordinates></Point></Placemark><Placemark><name>TOOBORAC</name><description>Code: TOO</description><Point><coordinates>144.8,-37.05,0</coordinates></Point></Placemark><Placemark><name>TOOLLEEN</name><description>Code: TLN</description><Point><coordinates>144.68333333333334,-36.71666666666667,0</coordinates></Point></Placemark><Placemark><name>TOORONGA</name><description>Code: TOGA</description><Point><coordinates>145.04722222222222,-37.847500000000004,0</coordinates></Point></Placemark><Placemark><name>VEHICLE TESTING GROUND</name><description>Code: VTG</description><Point><coordinates>144.41666666666666,-37.88333333333333,0</coordinates></Point></Placemark><Placemark><name>WALLAN</name><description>Code: WAN</description><Point><coordinates>144.97666666666666,-37.40833333333333,0</coordinates></Point></Placemark><Placemark><name>WARRANDYTE</name><description>Code: WRD</description><Point><coordinates>145.20833333333331,-37.75,0</coordinates></Point></Placemark><Placemark><name>WELSHPOOL</name><description>Code: WELS</description><Point><coordinates>146.43833333333333,-38.665,0</coordinates></Point></Placemark><Placemark><name>WERRIBEE RACECOURSE</name><description>Code: WBER</description><Point><coordinates>144.64166666666665,-37.9,0</coordinates></Point></Placemark><Placemark><name>WERRIBEE SOUTH</name><description>Code: WBES</description><Point><coordinates>144.68833333333333,-37.97666666666667,0</coordinates></Point></Placemark><Placemark><name>WEST BASS</name><description>Code: WEBS</description><Point><coordinates>141.0,-39.5,0</coordinates></Point></Placemark><Placemark><name>WESTGATE BRIDGE</name><description>Code: WES</description><Point><coordinates>144.89638888888888,-37.82972222222222,0</coordinates></Point></Placemark><Placemark><name>WHITTLESEA</name><description>Code: WTS</description><Point><coordinates>145.11666666666667,-37.516666666666666,0</coordinates></Point></Placemark><Placemark><name>WILLIAMSTOWN</name><description>Code: WMS</description><Point><coordinates>144.91111111111113,-37.86944444444445,0</coordinates></Point></Placemark><Placemark><name>WOODLANDS GOLF COURSE</name><description>Code: WOOS</description><Point><coordinates>145.1,-37.99666666666667,0</coordinates></Point></Placemark><Placemark><name>YACKANDANDAH</name><description>Code: YKH</description><Point><coordinates>146.84166666666667,-36.31166666666666,0</coordinates></Point></Placemark><Placemark><name>YAN YEAN RESV</name><description>Code: YYN</description><Point><coordinates>145.1375,-37.55833333333333,0</coordinates></Point></Placemark><Placemark><name>YARINGA YACHT MARINA</name><description>Code: YYM</description><Point><coordinates>145.25083333333333,-38.24722222222222,0</coordinates></Point></Placemark></Document></kml>