<?xml version='1.0' encoding='utf-8'?>
<kml xmlns="http://www.opengis.net/kml/2.2"><Document><Placemark><name>AOG</name><description>Waypoint: ADELONG</description><Point><coordinates>148.06666666666666,-35.30833333333333,0</coordinates></Point></Placemark><Placemark><name>APM</name><description>Waypoint: ANM PAPER MILL</description><Point><coordinates>146.98333333333332,-36.0,0</coordinates></Point></Placemark><Placemark><name>ANA</name><description>Waypoint: ANNA BAY</description><Point><coordinates>152.08333333333334,-32.78333333333333,0</coordinates></Point></Placemark><Placemark><name>APPN</name><description>Waypoint: APPIN</description><Point><coordinates>150.78833333333333,-34.2,0</coordinates></Point></Placemark><Placemark><name>ASU</name><description>Waypoint: ARUNDEL SUBSTATION</description><Point><coordinates>147.4,-35.208333333333336,0</coordinates></Point></Placemark><Placemark><name>ATG</name><description>Waypoint: ATTUNGA</description><Point><coordinates>150.8388888888889,-30.933333333333334,0</coordinates></Point></Placemark><Placemark><name>ALEC</name><description>Waypoint: AUSTRALIAN LIVESTOCK EQUINE CENT</description><Point><coordinates>150.9211111111111,-31.134722222222223,0</coordinates></Point></Placemark><Placemark><name>BANG</name><description>Waypoint: BANGALOW</description><Point><coordinates>153.51666666666668,-28.686666666666667,0</coordinates></Point></Placemark><Placemark><name>BRNJ</name><description>Waypoint: BARRENJOEY HEAD</description><Point><coordinates>151.32666666666665,-33.580000000000005,0</coordinates></Point></Placemark><Placemark><name>BRR</name><description>Waypoint: BARRINGUN</description><Point><coordinates>145.7,-29.016666666666666,0</coordinates></Point></Placemark><Placemark><name>BATB</name><description>Waypoint: BATEMANS BAY</description><Point><coordinates>150.18333333333334,-35.71666666666667,0</coordinates></Point></Placemark><Placemark><name>BIV</name><description>Waypoint: BECTIVE HS</description><Point><coordinates>150.73833333333332,-30.97222222222222,0</coordinates></Point></Placemark><Placemark><name>BLR</name><description>Waypoint: BELLBROOK</description><Point><coordinates>152.51111111111112,-30.821666666666665,0</coordinates></Point></Placemark><Placemark><name>BND</name><description>Waypoint: BENDEMEER</description><Point><coordinates>151.15,-30.883333333333333,0</coordinates></Point></Placemark><Placemark><name>BEE</name><description>Waypoint: BERILEE</description><Point><coordinates>151.105,-33.62,0</coordinates></Point></Placemark><Placemark><name>BBH</name><description>Waypoint: BOTANY BAY HEADS</description><Point><coordinates>151.24166666666665,-34.00833333333333,0</coordinates></Point></Placemark><Placemark><name>BOW</name><description>Waypoint: BOWNA</description><Point><coordinates>147.11666666666667,-35.95,0</coordinates></Point></Placemark><Placemark><name>BWL</name><description>Waypoint: BOWRAL</description><Point><coordinates>150.41805555555555,-34.47916666666667,0</coordinates></Point></Placemark><Placemark><name>BOV</name><description>Waypoint: BOWRAVILLE</description><Point><coordinates>152.85,-30.65,0</coordinates></Point></Placemark><Placemark><name>BAXT</name><description>Waypoint: BRANXTON</description><Point><coordinates>151.35,-32.666666666666664,0</coordinates></Point></Placemark><Placemark><name>BZA</name><description>Waypoint: BREEZA</description><Point><coordinates>150.46666666666667,-31.25,0</coordinates></Point></Placemark><Placemark><name>BRY</name><description>Waypoint: BRINGELLY</description><Point><coordinates>150.72833333333332,-33.94166666666666,0</coordinates></Point></Placemark><Placemark><name>BBG</name><description>Waypoint: BROOKLYN BRIDGE</description><Point><coordinates>151.19583333333333,-33.54083333333333,0</coordinates></Point></Placemark><Placemark><name>BRI</name><description>Waypoint: BROUGHTON ISLAND</description><Point><coordinates>152.30833333333334,-32.608333333333334,0</coordinates></Point></Placemark><Placemark><name>BRH</name><description>Waypoint: BRUNSWICK HEADS</description><Point><coordinates>153.55,-28.541666666666668,0</coordinates></Point></Placemark><Placemark><name>URG</name><description>Waypoint: BURBONG</description><Point><coordinates>149.30972222222223,-35.34027777777778,0</coordinates></Point></Placemark><Placemark><name>BUGA</name><description>Waypoint: BURRAGA</description><Point><coordinates>149.56666666666666,-33.88333333333333,0</coordinates></Point></Placemark><Placemark><name>BJK</name><description>Waypoint: BURRINJUCK</description><Point><coordinates>148.58333333333334,-35.005,0</coordinates></Point></Placemark><Placemark><name>BMK</name><description>Waypoint: BURRUMBUTTOCK</description><Point><coordinates>146.8,-35.833333333333336,0</coordinates></Point></Placemark><Placemark><name>BYRK</name><description>Waypoint: BYROCK</description><Point><coordinates>146.4,-30.65,0</coordinates></Point></Placemark><Placemark><name>BBAY</name><description>Waypoint: BYRON BAY</description><Point><coordinates>153.61666666666667,-28.65,0</coordinates></Point></Placemark><Placemark><name>CAMB</name><description>Waypoint: CAMPBELLTOWN UNIVERSITY</description><Point><coordinates>150.78333333333333,-34.07166666666667,0</coordinates></Point></Placemark><Placemark><name>CBY</name><description>Waypoint: CANTERBURY RACECOURSE</description><Point><coordinates>151.11166666666665,-33.90833333333333,0</coordinates></Point></Placemark><Placemark><name>CAPS</name><description>Waypoint: CAPE BANKS</description><Point><coordinates>151.24444444444444,-33.9975,0</coordinates></Point></Placemark><Placemark><name>CAPT</name><description>Waypoint: CAPTAINS FLAT</description><Point><coordinates>149.4452777777778,-35.59111111111111,0</coordinates></Point></Placemark><Placemark><name>CYM</name><description>Waypoint: CHAFFEY DAM</description><Point><coordinates>151.13333333333333,-31.341666666666665,0</coordinates></Point></Placemark><Placemark><name>CHAT</name><description>Waypoint: CHATSWOOD CBD</description><Point><coordinates>151.18527777777777,-33.79611111111111,0</coordinates></Point></Placemark><Placemark><name>CIB</name><description>Waypoint: CHIPBOARD FACTORY</description><Point><coordinates>147.40416666666667,-35.07083333333334,0</coordinates></Point></Placemark><Placemark><name>CNTH</name><description>Waypoint: CHOPPERS NORTH</description><Point><coordinates>151.025,-33.88166666666667,0</coordinates></Point></Placemark><Placemark><name>CSTH</name><description>Waypoint: CHOPPERS SOUTH</description><Point><coordinates>150.96444444444444,-33.95416666666667,0</coordinates></Point></Placemark><Placemark><name>CWST</name><description>Waypoint: CHOPPERS WEST</description><Point><coordinates>151.0038888888889,-33.87361111111111,0</coordinates></Point></Placemark><Placemark><name>COBA</name><description>Waypoint: COBAKI</description><Point><coordinates>153.48777777777775,-28.183333333333334,0</coordinates></Point></Placemark><Placemark><name>CGE</name><description>Waypoint: COLLINGULLIE</description><Point><coordinates>147.12083333333334,-35.08888888888889,0</coordinates></Point></Placemark><Placemark><name>CONG</name><description>Waypoint: COMERONG ISLAND</description><Point><coordinates>150.73333333333332,-34.88333333333333,0</coordinates></Point></Placemark><Placemark><name>CGM</name><description>Waypoint: CONDONG MILL</description><Point><coordinates>153.43333333333334,-28.316666666666666,0</coordinates></Point></Placemark><Placemark><name>CIS</name><description>Waypoint: COOK ISLAND</description><Point><coordinates>153.57777777777778,-28.197222222222223,0</coordinates></Point></Placemark><Placemark><name>CLMN</name><description>Waypoint: COOLAMON</description><Point><coordinates>147.2,-34.81666666666667,0</coordinates></Point></Placemark><Placemark><name>CUL</name><description>Waypoint: CRONULLA</description><Point><coordinates>151.15333333333334,-34.06166666666666,0</coordinates></Point></Placemark><Placemark><name>CRPC</name><description>Waypoint: CROPPA CREEK</description><Point><coordinates>150.3,-29.133333333333333,0</coordinates></Point></Placemark><Placemark><name>CCN</name><description>Waypoint: CULCAIRN</description><Point><coordinates>147.0388888888889,-35.666666666666664,0</coordinates></Point></Placemark><Placemark><name>DHH</name><description>Waypoint: DARLING HARBOUR</description><Point><coordinates>151.2,-33.858333333333334,0</coordinates></Point></Placemark><Placemark><name>DODI</name><description>Waypoint: DODDS ISLAND</description><Point><coordinates>153.5336111111111,-28.248055555555556,0</coordinates></Point></Placemark><Placemark><name>DLPT</name><description>Waypoint: DOLLS POINT</description><Point><coordinates>151.14805555555554,-33.99472222222222,0</coordinates></Point></Placemark><Placemark><name>DRO</name><description>Waypoint: DORRIGO</description><Point><coordinates>152.71249999999998,-30.341666666666665,0</coordinates></Point></Placemark><Placemark><name>DGN</name><description>Waypoint: DUNGOWAN</description><Point><coordinates>151.11666666666667,-31.216666666666665,0</coordinates></Point></Placemark><Placemark><name>DUWN</name><description>Waypoint: DUNGOWAN DAM</description><Point><coordinates>151.35,-31.4,0</coordinates></Point></Placemark><Placemark><name>DUA</name><description>Waypoint: DURI GAP</description><Point><coordinates>150.7,-31.2,0</coordinates></Point></Placemark><Placemark><name>DMT</name><description>Waypoint: DURI MT</description><Point><coordinates>150.73055555555555,-31.204166666666666,0</coordinates></Point></Placemark><Placemark><name>EGT</name><description>Waypoint: EAST GRETA</description><Point><coordinates>151.5375,-32.737500000000004,0</coordinates></Point></Placemark><Placemark><name>ERSK</name><description>Waypoint: ERSKINEVILLE OVAL</description><Point><coordinates>151.19055555555556,-33.90222222222222,0</coordinates></Point></Placemark><Placemark><name>ETTA</name><description>Waypoint: ETTAMOGAH PUB</description><Point><coordinates>147.00833333333333,-35.968333333333334,0</coordinates></Point></Placemark><Placemark><name>FHS</name><description>Waypoint: FARRER HIGH SCHOOL</description><Point><coordinates>150.98333333333332,-31.141666666666666,0</coordinates></Point></Placemark><Placemark><name>FSHR</name><description>Waypoint: FISHERMANS PARADISE</description><Point><coordinates>150.44833333333332,-35.230555555555554,0</coordinates></Point></Placemark><Placemark><name>FIT</name><description>Waypoint: FITNESS CAMP</description><Point><coordinates>147.62222222222223,-35.166666666666664,0</coordinates></Point></Placemark><Placemark><name>GST</name><description>Waypoint: GATE SOUTH</description><Point><coordinates>150.68472222222223,-31.290277777777778,0</coordinates></Point></Placemark><Placemark><name>GWT</name><description>Waypoint: GATE WEST</description><Point><coordinates>150.57222222222222,-31.020833333333332,0</coordinates></Point></Placemark><Placemark><name>GRB</name><description>Waypoint: GEORGES RIVER BRIDGE</description><Point><coordinates>151.10999999999999,-34.00333333333333,0</coordinates></Point></Placemark><Placemark><name>GOY</name><description>Waypoint: GEROGERY</description><Point><coordinates>146.99166666666665,-35.83888888888889,0</coordinates></Point></Placemark><Placemark><name>GVB</name><description>Waypoint: GLADESVILLE BRIDGE</description><Point><coordinates>151.14666666666665,-33.84166666666667,0</coordinates></Point></Placemark><Placemark><name>GBRY</name><description>Waypoint: GLEN BRAY</description><Point><coordinates>147.00833333333333,-35.925,0</coordinates></Point></Placemark><Placemark><name>GLEN</name><description>Waypoint: GLENLOCH INTERCHANGE</description><Point><coordinates>149.085,-35.28444444444444,0</coordinates></Point></Placemark><Placemark><name>GRE</name><description>Waypoint: GLENREAGH</description><Point><coordinates>152.9777777777778,-30.054166666666667,0</coordinates></Point></Placemark><Placemark><name>GCR</name><description>Waypoint: GLOUCESTER</description><Point><coordinates>151.96666666666667,-32.00416666666667,0</coordinates></Point></Placemark><Placemark><name>GGV</name><description>Waypoint: GOOGONG RESV</description><Point><coordinates>149.26111111111112,-35.420833333333334,0</coordinates></Point></Placemark><Placemark><name>GGO</name><description>Waypoint: GOONOO GOONOO HS</description><Point><coordinates>150.90555555555557,-31.309722222222224,0</coordinates></Point></Placemark><Placemark><name>GRRV</name><description>Waypoint: GROSE RIVER</description><Point><coordinates>150.67027777777776,-33.614444444444445,0</coordinates></Point></Placemark><Placemark><name>GDG</name><description>Waypoint: GUNDAGAI</description><Point><coordinates>148.10277777777776,-35.06111111111111,0</coordinates></Point></Placemark><Placemark><name>GUNN</name><description>Waypoint: GUNNING</description><Point><coordinates>149.26666666666668,-34.781666666666666,0</coordinates></Point></Placemark><Placemark><name>HBB</name><description>Waypoint: HARBOUR BRIDGE</description><Point><coordinates>151.20833333333331,-33.85333333333333,0</coordinates></Point></Placemark><Placemark><name>HAF</name><description>Waypoint: HAREFIELD</description><Point><coordinates>147.51666666666668,-34.96388888888889,0</coordinates></Point></Placemark><Placemark><name>HASS</name><description>Waypoint: HASTINGS PT</description><Point><coordinates>153.57999999999998,-28.358333333333334,0</coordinates></Point></Placemark><Placemark><name>HATF</name><description>Waypoint: HATFIELD</description><Point><coordinates>143.65,-33.7,0</coordinates></Point></Placemark><Placemark><name>HNB</name><description>Waypoint: HELENSBURGH</description><Point><coordinates>150.975,-34.19166666666666,0</coordinates></Point></Placemark><Placemark><name>HNTY</name><description>Waypoint: HENTY</description><Point><coordinates>147.03333333333333,-35.525,0</coordinates></Point></Placemark><Placemark><name>HXB</name><description>Waypoint: HEXHAM BRIDGE</description><Point><coordinates>151.69,-32.830000000000005,0</coordinates></Point></Placemark><Placemark><name>HBKT</name><description>Waypoint: HOLBROOK TOWNSHIP</description><Point><coordinates>147.325,-35.730555555555554,0</coordinates></Point></Placemark><Placemark><name>HSY</name><description>Waypoint: HORNSBY</description><Point><coordinates>151.10666666666665,-33.69166666666666,0</coordinates></Point></Placemark><Placemark><name>HST</name><description>Waypoint: HOSKINSTOWN</description><Point><coordinates>149.45,-35.42222222222222,0</coordinates></Point></Placemark><Placemark><name>HWG</name><description>Waypoint: HOWLONG</description><Point><coordinates>146.625,-35.97638888888889,0</coordinates></Point></Placemark><Placemark><name>HRD</name><description>Waypoint: HUNGERFORD</description><Point><coordinates>144.4,-29.0,0</coordinates></Point></Placemark><Placemark><name>INGL</name><description>Waypoint: INGLEBURN</description><Point><coordinates>150.85833333333332,-33.97166666666667,0</coordinates></Point></Placemark><Placemark><name>JIBN</name><description>Waypoint: JIBBON PT</description><Point><coordinates>151.17,-34.085,0</coordinates></Point></Placemark><Placemark><name>JIA</name><description>Waypoint: JINDERA</description><Point><coordinates>146.8875,-35.958333333333336,0</coordinates></Point></Placemark><Placemark><name>JNEE</name><description>Waypoint: JUNEE</description><Point><coordinates>147.58333333333334,-34.86666666666667,0</coordinates></Point></Placemark><Placemark><name>KMA</name><description>Waypoint: KIAMA</description><Point><coordinates>150.85,-34.666666666666664,0</coordinates></Point></Placemark><Placemark><name>KIAN</name><description>Waypoint: KIANDRA</description><Point><coordinates>148.5,-35.86666666666667,0</coordinates></Point></Placemark><Placemark><name>KCFF</name><description>Waypoint: KINGSCLIFF</description><Point><coordinates>153.57166666666666,-28.25,0</coordinates></Point></Placemark><Placemark><name>KIRA</name><description>Waypoint: KIRRA</description><Point><coordinates>153.5225,-28.16638888888889,0</coordinates></Point></Placemark><Placemark><name>KOT</name><description>Waypoint: KOOTINGAL</description><Point><coordinates>151.05,-31.05,0</coordinates></Point></Placemark><Placemark><name>KRMD</name><description>Waypoint: KURMOND</description><Point><coordinates>150.68722222222223,-33.55083333333333,0</coordinates></Point></Placemark><Placemark><name>KYP</name><description>Waypoint: KYEAMBA PARK</description><Point><coordinates>147.61666666666667,-35.447222222222216,0</coordinates></Point></Placemark><Placemark><name>KYE</name><description>Waypoint: KYEAMBA TOWER</description><Point><coordinates>147.59166666666667,-35.525,0</coordinates></Point></Placemark><Placemark><name>LDH</name><description>Waypoint: LADYSMITH</description><Point><coordinates>147.51666666666668,-35.211111111111116,0</coordinates></Point></Placemark><Placemark><name>LKT</name><description>Waypoint: LAKE ALBERT</description><Point><coordinates>147.36333333333332,-35.17777777777778,0</coordinates></Point></Placemark><Placemark><name>LBT</name><description>Waypoint: LAKE BATHURST</description><Point><coordinates>149.68333333333334,-35.05,0</coordinates></Point></Placemark><Placemark><name>LGGN</name><description>Waypoint: LAKE GEORGE NORTH</description><Point><coordinates>149.39166666666665,-34.98833333333334,0</coordinates></Point></Placemark><Placemark><name>LGGS</name><description>Waypoint: LAKE GEORGE SOUTH</description><Point><coordinates>149.40833333333333,-35.20277777777778,0</coordinates></Point></Placemark><Placemark><name>LIHR</name><description>Waypoint: LIGHTHORSE INTERCHANGE M7/M4</description><Point><coordinates>150.85416666666666,-33.79805555555556,0</coordinates></Point></Placemark><Placemark><name>LRF</name><description>Waypoint: LONG REEF</description><Point><coordinates>151.3213888888889,-33.74194444444444,0</coordinates></Point></Placemark><Placemark><name>MKV</name><description>Waypoint: MACKSVILLE</description><Point><coordinates>152.9152777777778,-30.708333333333332,0</coordinates></Point></Placemark><Placemark><name>MOP</name><description>Waypoint: MANGOPLAH</description><Point><coordinates>147.24166666666665,-35.391666666666666,0</coordinates></Point></Placemark><Placemark><name>MAL</name><description>Waypoint: MANILLA</description><Point><coordinates>150.72361111111113,-30.75,0</coordinates></Point></Placemark><Placemark><name>MNLY</name><description>Waypoint: MANLY</description><Point><coordinates>151.2888888888889,-33.79833333333333,0</coordinates></Point></Placemark><Placemark><name>MRBR</name><description>Waypoint: MAROUBRA BEACH</description><Point><coordinates>151.25666666666666,-33.95,0</coordinates></Point></Placemark><Placemark><name>MAR</name><description>Waypoint: MARRAR</description><Point><coordinates>147.35,-34.825,0</coordinates></Point></Placemark><Placemark><name>MYF</name><description>Waypoint: MAYFIELD</description><Point><coordinates>150.625,-33.962500000000006,0</coordinates></Point></Placemark><Placemark><name>MEG</name><description>Waypoint: MENANGLE</description><Point><coordinates>150.74166666666665,-34.125,0</coordinates></Point></Placemark><Placemark><name>MHGO</name><description>Waypoint: MICHELAGO</description><Point><coordinates>149.16666666666666,-35.71666666666667,0</coordinates></Point></Placemark><Placemark><name>MCRO</name><description>Waypoint: MILLS CROSS</description><Point><coordinates>149.42472222222221,-35.37083333333334,0</coordinates></Point></Placemark><Placemark><name>MPSC</name><description>Waypoint: MOORE PARK SUPA CENTRE</description><Point><coordinates>151.2147222222222,-33.90277777777778,0</coordinates></Point></Placemark><Placemark><name>MSV</name><description>Waypoint: MOSS VALE</description><Point><coordinates>150.42166666666665,-34.525277777777774,0</coordinates></Point></Placemark><Placemark><name>MTB</name><description>Waypoint: MOUNT BOYCE</description><Point><coordinates>150.27416666666667,-33.618611111111115,0</coordinates></Point></Placemark><Placemark><name>MTBA</name><description>Waypoint: MOUNT CORAMBA</description><Point><coordinates>153.05,-30.22083333333333,0</coordinates></Point></Placemark><Placemark><name>MOB</name><description>Waypoint: MOUNT MOOMBIL</description><Point><coordinates>152.85972222222222,-30.31722222222222,0</coordinates></Point></Placemark><Placemark><name>MPG</name><description>Waypoint: MOUNT PALERANG</description><Point><coordinates>149.6,-35.43333333333333,0</coordinates></Point></Placemark><Placemark><name>SOV</name><description>Waypoint: MOUNT SOMERVILLE RADAR</description><Point><coordinates>153.4261111111111,-28.215555555555554,0</coordinates></Point></Placemark><Placemark><name>MVI</name><description>Waypoint: MOUNT VICTORIA</description><Point><coordinates>150.25,-33.583333333333336,0</coordinates></Point></Placemark><Placemark><name>MTWG</name><description>Waypoint: MOUNT WARNING</description><Point><coordinates>153.26666666666668,-28.4,0</coordinates></Point></Placemark><Placemark><name>MBBY</name><description>Waypoint: MULLUMBIMBY</description><Point><coordinates>153.5,-28.55,0</coordinates></Point></Placemark><Placemark><name>MMM</name><description>Waypoint: MURRUMBATEMAN</description><Point><coordinates>149.025,-34.97222222222222,0</coordinates></Point></Placemark><Placemark><name>MUI</name><description>Waypoint: MURRURUNDI</description><Point><coordinates>150.83333333333334,-31.766666666666666,0</coordinates></Point></Placemark><Placemark><name>MUR</name><description>Waypoint: MURWILLUMBAH</description><Point><coordinates>153.3972222222222,-28.325,0</coordinates></Point></Placemark><Placemark><name>NHS</name><description>Waypoint: NAMBUCCA HEADS</description><Point><coordinates>153.00833333333333,-30.644444444444446,0</coordinates></Point></Placemark><Placemark><name>NAMA</name><description>Waypoint: NAROOMA</description><Point><coordinates>150.13333333333333,-36.2,0</coordinates></Point></Placemark><Placemark><name>NKBO</name><description>Waypoint: NECKARBOO</description><Point><coordinates>144.61666666666667,-32.06666666666667,0</coordinates></Point></Placemark><Placemark><name>NEM</name><description>Waypoint: NEMINGHA</description><Point><coordinates>150.99166666666665,-31.125,0</coordinates></Point></Placemark><Placemark><name>NPBR</name><description>Waypoint: NEPEAN BRIDGE</description><Point><coordinates>150.65916666666666,-33.76416666666667,0</coordinates></Point></Placemark><Placemark><name>NTT</name><description>Waypoint: NIMBIN TV TOWERS</description><Point><coordinates>153.29166666666666,-28.541666666666668,0</coordinates></Point></Placemark><Placemark><name>NBB</name><description>Waypoint: NOBBYS HEAD</description><Point><coordinates>151.79,-32.915,0</coordinates></Point></Placemark><Placemark><name>NOHD</name><description>Waypoint: NORTH HEAD</description><Point><coordinates>151.29166666666666,-33.82166666666667,0</coordinates></Point></Placemark><Placemark><name>NSTA</name><description>Waypoint: NORTH STAR</description><Point><coordinates>150.41666666666666,-28.916666666666668,0</coordinates></Point></Placemark><Placemark><name>NUN</name><description>Waypoint: NUNDLE</description><Point><coordinates>151.125,-31.466666666666665,0</coordinates></Point></Placemark><Placemark><name>ONPK</name><description>Waypoint: ORAN PARK</description><Point><coordinates>150.74194444444444,-34.00833333333333,0</coordinates></Point></Placemark><Placemark><name>PRT</name><description>Waypoint: PARRAMATTA</description><Point><coordinates>151.005,-33.81666666666667,0</coordinates></Point></Placemark><Placemark><name>PAA</name><description>Waypoint: PATONGA</description><Point><coordinates>151.2625,-33.55166666666666,0</coordinates></Point></Placemark><Placemark><name>PENH</name><description>Waypoint: PENNANT HILLS STROBE</description><Point><coordinates>151.07,-33.74,0</coordinates></Point></Placemark><Placemark><name>PENT</name><description>Waypoint: PENRITH</description><Point><coordinates>150.7,-33.75833333333333,0</coordinates></Point></Placemark><Placemark><name>PIL</name><description>Waypoint: PICKET HILL</description><Point><coordinates>152.98333333333332,-30.570833333333333,0</coordinates></Point></Placemark><Placemark><name>PNP</name><description>Waypoint: PICNIC PT</description><Point><coordinates>151.00166666666667,-33.980000000000004,0</coordinates></Point></Placemark><Placemark><name>PIC</name><description>Waypoint: PICTON</description><Point><coordinates>150.61666666666667,-34.175,0</coordinates></Point></Placemark><Placemark><name>PIG</name><description>Waypoint: PIGGERY</description><Point><coordinates>146.79166666666666,-36.0125,0</coordinates></Point></Placemark><Placemark><name>PSS</name><description>Waypoint: POINT STEPHENS LIGHTHOUSE</description><Point><coordinates>152.20833333333331,-32.74583333333334,0</coordinates></Point></Placemark><Placemark><name>PSP</name><description>Waypoint: PROSPECT RESV</description><Point><coordinates>150.91666666666666,-33.81666666666667,0</coordinates></Point></Placemark><Placemark><name>DNGR</name><description>Waypoint: PT DANGER</description><Point><coordinates>153.55166666666668,-28.165,0</coordinates></Point></Placemark><Placemark><name>PUTY</name><description>Waypoint: PUTTY</description><Point><coordinates>150.75,-32.96666666666667,0</coordinates></Point></Placemark><Placemark><name>QBN</name><description>Waypoint: QUEANBEYAN</description><Point><coordinates>149.24249999999998,-35.35916666666667,0</coordinates></Point></Placemark><Placemark><name>QNDI</name><description>Waypoint: QUIRINDI</description><Point><coordinates>150.51388888888889,-31.490555555555556,0</coordinates></Point></Placemark><Placemark><name>RER</name><description>Waypoint: RED ROCK</description><Point><coordinates>153.225,-29.98611111111111,0</coordinates></Point></Placemark><Placemark><name>REDF</name><description>Waypoint: REDFERN RAILWAY STATION</description><Point><coordinates>151.19861111111112,-33.89194444444444,0</coordinates></Point></Placemark><Placemark><name>RIV</name><description>Waypoint: RIVERINA CAMPUS</description><Point><coordinates>147.34583333333333,-35.05555555555555,0</coordinates></Point></Placemark><Placemark><name>RKWC</name><description>Waypoint: ROOKWOOD CEMETERY</description><Point><coordinates>151.055,-33.875,0</coordinates></Point></Placemark><Placemark><name>RSH</name><description>Waypoint: ROSEHILL RACECOURSE</description><Point><coordinates>151.025,-33.825,0</coordinates></Point></Placemark><Placemark><name>RVB</name><description>Waypoint: ROSEVILLE BRIDGE</description><Point><coordinates>151.2,-33.766666666666666,0</coordinates></Point></Placemark><Placemark><name>RCB</name><description>Waypoint: RUSH CUTTERS BAY</description><Point><coordinates>151.23222222222222,-33.87361111111111,0</coordinates></Point></Placemark><Placemark><name>RYB</name><description>Waypoint: RYDE BRIDGE</description><Point><coordinates>151.09166666666667,-33.825,0</coordinates></Point></Placemark><Placemark><name>SWTE</name><description>Waypoint: SAWTELL</description><Point><coordinates>153.1,-30.366666666666667,0</coordinates></Point></Placemark><Placemark><name>SECF</name><description>Waypoint: SEA CLIFF BRIDGE</description><Point><coordinates>150.9752777777778,-34.25277777777778,0</coordinates></Point></Placemark><Placemark><name>SYI</name><description>Waypoint: SNOWY INTERSECTION</description><Point><coordinates>147.86833333333334,-35.18333333333333,0</coordinates></Point></Placemark><Placemark><name>SOFA</name><description>Waypoint: SOFALA</description><Point><coordinates>149.68333333333334,-33.016666666666666,0</coordinates></Point></Placemark><Placemark><name>SRP</name><description>Waypoint: SOLDIERS POINT</description><Point><coordinates>152.0625,-32.7,0</coordinates></Point></Placemark><Placemark><name>SMN</name><description>Waypoint: SOMERTON</description><Point><coordinates>150.63666666666666,-30.941666666666666,0</coordinates></Point></Placemark><Placemark><name>SPIT</name><description>Waypoint: SPIT BRIDGE</description><Point><coordinates>151.2461111111111,-33.80277777777778,0</coordinates></Point></Placemark><Placemark><name>SRR</name><description>Waypoint: SPLIT ROCK RESV</description><Point><coordinates>150.7,-30.575,0</coordinates></Point></Placemark><Placemark><name>SOI</name><description>Waypoint: SPLIT SOLITARY ISLAND</description><Point><coordinates>153.17916666666665,-30.241666666666667,0</coordinates></Point></Placemark><Placemark><name>SIS</name><description>Waypoint: ST IVES SHOWGROUND</description><Point><coordinates>151.18333333333334,-33.705000000000005,0</coordinates></Point></Placemark><Placemark><name>SLL</name><description>Waypoint: STANWELL PARK</description><Point><coordinates>150.98888888888888,-34.22833333333333,0</coordinates></Point></Placemark><Placemark><name>STOT</name><description>Waypoint: STOTTS ISLAND</description><Point><coordinates>153.50083333333333,-28.269166666666667,0</coordinates></Point></Placemark><Placemark><name>SRO</name><description>Waypoint: STROUD ROAD</description><Point><coordinates>151.91833333333332,-32.34666666666667,0</coordinates></Point></Placemark><Placemark><name>SUI</name><description>Waypoint: STURT INTERSECTION</description><Point><coordinates>147.79333333333332,-35.22,0</coordinates></Point></Placemark><Placemark><name>SLMT</name><description>Waypoint: SUGARLOAF MT</description><Point><coordinates>150.875,-31.433333333333334,0</coordinates></Point></Placemark><Placemark><name>SUG</name><description>Waypoint: SUGARLOAF PT</description><Point><coordinates>152.5402777777778,-32.44444444444444,0</coordinates></Point></Placemark><Placemark><name>SUD</name><description>Waypoint: SUTHERLAND</description><Point><coordinates>151.05555555555557,-34.038333333333334,0</coordinates></Point></Placemark><Placemark><name>SUE</name><description>Waypoint: SUTTON ROAD OVERPASS</description><Point><coordinates>149.25833333333333,-35.18333333333333,0</coordinates></Point></Placemark><Placemark><name>SCTY</name><description>Waypoint: SYDNEY CBD</description><Point><coordinates>151.2,-33.86666666666667,0</coordinates></Point></Placemark><Placemark><name>SCG</name><description>Waypoint: SYDNEY CRICKET GROUND</description><Point><coordinates>151.22333333333333,-33.891666666666666,0</coordinates></Point></Placemark><Placemark><name>SYHD</name><description>Waypoint: SYDNEY HEADS</description><Point><coordinates>151.29166666666666,-33.833333333333336,0</coordinates></Point></Placemark><Placemark><name>TBL</name><description>Waypoint: TABULAM</description><Point><coordinates>152.5686111111111,-28.886666666666667,0</coordinates></Point></Placemark><Placemark><name>TAGO</name><description>Waypoint: TARAGO</description><Point><coordinates>149.65472222222223,-35.069722222222225,0</coordinates></Point></Placemark><Placemark><name>TRT</name><description>Waypoint: TARCUTTA</description><Point><coordinates>147.73888888888888,-35.28,0</coordinates></Point></Placemark><Placemark><name>THK</name><description>Waypoint: THE OAKS</description><Point><coordinates>150.57777777777778,-34.07777777777778,0</coordinates></Point></Placemark><Placemark><name>RCK</name><description>Waypoint: THE ROCK</description><Point><coordinates>147.07083333333333,-35.275,0</coordinates></Point></Placemark><Placemark><name>APST</name><description>Waypoint: THE STAMFORD (HOTEL)</description><Point><coordinates>151.18555555555557,-33.93111111111111,0</coordinates></Point></Placemark><Placemark><name>TUK</name><description>Waypoint: TUCKERS KNOB</description><Point><coordinates>152.98055555555555,-30.343333333333334,0</coordinates></Point></Placemark><Placemark><name>TUMB</name><description>Waypoint: TUMBULGUM</description><Point><coordinates>153.46666666666667,-28.278333333333332,0</coordinates></Point></Placemark><Placemark><name>TWRN</name><description>Waypoint: TWO RN</description><Point><coordinates>150.88555555555556,-33.94222222222222,0</coordinates></Point></Placemark><Placemark><name>UKER</name><description>Waypoint: UKEREBAGH ISLAND</description><Point><coordinates>153.54611111111112,-28.180555555555557,0</coordinates></Point></Placemark><Placemark><name>UDA</name><description>Waypoint: ULLADULLA</description><Point><coordinates>150.48333333333332,-35.35,0</coordinates></Point></Placemark><Placemark><name>URA</name><description>Waypoint: URANQUINTY</description><Point><coordinates>147.2458333333333,-35.19166666666666,0</coordinates></Point></Placemark><Placemark><name>URU</name><description>Waypoint: URUNGA</description><Point><coordinates>153.01666666666668,-30.491666666666667,0</coordinates></Point></Placemark><Placemark><name>WBH</name><description>Waypoint: WALLABADAH</description><Point><coordinates>150.825,-31.538333333333334,0</coordinates></Point></Placemark><Placemark><name>WGR</name><description>Waypoint: WALLANGARRA</description><Point><coordinates>151.93333333333334,-28.916666666666668,0</coordinates></Point></Placemark><Placemark><name>WDN</name><description>Waypoint: WANDANDIAN</description><Point><coordinates>150.51666666666668,-35.083333333333336,0</coordinates></Point></Placemark><Placemark><name>WAG</name><description>Waypoint: WANTABADGERY</description><Point><coordinates>147.72222222222223,-35.05833333333333,0</coordinates></Point></Placemark><Placemark><name>WAD</name><description>Waypoint: WARRAGAMBA DAM</description><Point><coordinates>150.59166666666667,-33.885,0</coordinates></Point></Placemark><Placemark><name>WASL</name><description>Waypoint: WARRAL SILO</description><Point><coordinates>150.85833333333332,-31.15,0</coordinates></Point></Placemark><Placemark><name>WFM</name><description>Waypoint: WARWICK FARM</description><Point><coordinates>150.94583333333333,-33.91111111111111,0</coordinates></Point></Placemark><Placemark><name>WFL</name><description>Waypoint: WATERFALL</description><Point><coordinates>150.99166666666665,-34.13611111111111,0</coordinates></Point></Placemark><Placemark><name>WEK</name><description>Waypoint: WERRIS CREEK</description><Point><coordinates>150.65,-31.3575,0</coordinates></Point></Placemark><Placemark><name>WST</name><description>Waypoint: WESTMEAD</description><Point><coordinates>150.98666666666665,-33.80333333333333,0</coordinates></Point></Placemark><Placemark><name>WIE</name><description>Waypoint: WIMMERA</description><Point><coordinates>150.81666666666666,-31.15833333333333,0</coordinates></Point></Placemark><Placemark><name>WDU</name><description>Waypoint: WIRRADGURIE</description><Point><coordinates>152.06666666666666,-31.9,0</coordinates></Point></Placemark><Placemark><name>WSFR</name><description>Waypoint: WISEMANS FERRY</description><Point><coordinates>150.98777777777775,-33.38,0</coordinates></Point></Placemark><Placemark><name>WGG</name><description>Waypoint: WOOLGOOLGA</description><Point><coordinates>153.2,-30.1125,0</coordinates></Point></Placemark><Placemark><name>WOI</name><description>Waypoint: WOOLLAMIA</description><Point><coordinates>150.6602777777778,-35.01972222222222,0</coordinates></Point></Placemark><Placemark><name>WAM</name><description>Waypoint: WOOMARGAMA</description><Point><coordinates>147.2486111111111,-35.833333333333336,0</coordinates></Point></Placemark><Placemark><name>WMF</name><description>Waypoint: WYMAH FERRY</description><Point><coordinates>147.2625,-36.041666666666664,0</coordinates></Point></Placemark><Placemark><name>ASST</name><description>Waypoint: YASS TOWNSHIP</description><Point><coordinates>148.91666666666666,-34.85,0</coordinates></Point></Placemark></Document></kml>