<?xml version="1.0" encoding="utf-8"?>
<kml xmlns="http://www.opengis.net/kml/2.2">
  <Document>
    <Placemark>
      <name>ACTY - ADELAIDE CBD</name>
      <description>State: SA</description>
      <Point>
        <coordinates>138.6,-34.93333333333333,0</coordinates>
      </Point>
    </Placemark>
    <Placemark>
      <name>ALON - ALAWOONA</name>
      <description>State: SA</description>
      <Point>
        <coordinates>140.5,-34.75,0</coordinates>
      </Point>
    </Placemark>
    <Placemark>
      <name>BDWD - BIRDWOOD</name>
      <description>State: SA</description>
      <Point>
        <coordinates>138.95999999999998,-34.82333333333334,0</coordinates>
      </Point>
    </Placemark>
    <Placemark>
      <name>BWMS - BOWMANS</name>
      <description>State: SA</description>
      <Point>
        <coordinates>138.26666666666668,-34.15,0</coordinates>
      </Point>
    </Placemark>
    <Placemark>
      <name>BTJ - BRIGHTON JETTY</name>
      <description>State: SA</description>
      <Point>
        <coordinates>138.51666666666668,-35.016666666666666,0</coordinates>
      </Point>
    </Placemark>
    <Placemark>
      <name>BPK - BUCKLAND PARK WEATHER RADAR</name>
      <description>State: SA</description>
      <Point>
        <coordinates>138.4688888888889,-34.61694444444444,0</coordinates>
      </Point>
    </Placemark>
    <Placemark>
      <name>BURR - BURRA</name>
      <description>State: SA</description>
      <Point>
        <coordinates>138.93333333333334,-33.68333333333333,0</coordinates>
      </Point>
    </Placemark>
    <Placemark>
      <name>CBRA - CAMBRAI</name>
      <description>State: SA</description>
      <Point>
        <coordinates>139.28,-34.65833333333333,0</coordinates>
      </Point>
    </Placemark>
    <Placemark>
      <name>CAJE - CAPE JERVIS</name>
      <description>State: SA</description>
      <Point>
        <coordinates>138.09194444444447,-35.60611111111111,0</coordinates>
      </Point>
    </Placemark>
    <Placemark>
      <name>CAO - CEDUNA OBSERVATORY</name>
      <description>State: SA</description>
      <Point>
        <coordinates>133.8,-31.866666666666667,0</coordinates>
      </Point>
    </Placemark>
    <Placemark>
      <name>CRAY - CRAYFISH</name>
      <description>State: SA</description>
      <Point>
        <coordinates>139.75,-38.583333333333336,0</coordinates>
      </Point>
    </Placemark>
    <Placemark>
      <name>DMW - DAM WALL</name>
      <description>State: SA</description>
      <Point>
        <coordinates>138.72083333333333,-34.75833333333333,0</coordinates>
      </Point>
    </Placemark>
    <Placemark>
      <name>DCRK - DRY CREEK</name>
      <description>State: SA</description>
      <Point>
        <coordinates>138.58333333333334,-34.833333333333336,0</coordinates>
      </Point>
    </Placemark>
    <Placemark>
      <name>DUB - DUBLIN</name>
      <description>State: SA</description>
      <Point>
        <coordinates>138.35,-34.45416666666667,0</coordinates>
      </Point>
    </Placemark>
    <Placemark>
      <name>DTON - DUTTON</name>
      <description>State: SA</description>
      <Point>
        <coordinates>139.13333333333333,-34.36666666666667,0</coordinates>
      </Point>
    </Placemark>
    <Placemark>
      <name>FOWB - FOWLERS BAY</name>
      <description>State: SA</description>
      <Point>
        <coordinates>132.43333333333334,-31.983333333333334,0</coordinates>
      </Point>
    </Placemark>
    <Placemark>
      <name>FRLG - FREELING</name>
      <description>State: SA</description>
      <Point>
        <coordinates>138.80833333333334,-34.45666666666667,0</coordinates>
      </Point>
    </Placemark>
    <Placemark>
      <name>GLGA - GALGA</name>
      <description>State: SA</description>
      <Point>
        <coordinates>139.96666666666667,-34.71666666666667,0</coordinates>
      </Point>
    </Placemark>
    <Placemark>
      <name>GWDM - GAWLER DAM</name>
      <description>State: SA</description>
      <Point>
        <coordinates>138.7711111111111,-34.56305555555555,0</coordinates>
      </Point>
    </Placemark>
    <Placemark>
      <name>GEP - GEPPS CROSS</name>
      <description>State: SA</description>
      <Point>
        <coordinates>138.6,-34.85,0</coordinates>
      </Point>
    </Placemark>
    <Placemark>
      <name>GLC - GLENORCHY</name>
      <description>State: SA</description>
      <Point>
        <coordinates>139.78333333333333,-31.916666666666668,0</coordinates>
      </Point>
    </Placemark>
    <Placemark>
      <name>HGTE - HARROGATE</name>
      <description>State: SA</description>
      <Point>
        <coordinates>139.01833333333335,-34.95333333333333,0</coordinates>
      </Point>
    </Placemark>
    <Placemark>
      <name>HNLY - HENLEY JETTY</name>
      <description>State: SA</description>
      <Point>
        <coordinates>138.4908333333333,-34.91972222222222,0</coordinates>
      </Point>
    </Placemark>
    <Placemark>
      <name>HVR - HOPE VALLEY RESV</name>
      <description>State: SA</description>
      <Point>
        <coordinates>138.68333333333334,-34.85,0</coordinates>
      </Point>
    </Placemark>
    <Placemark>
      <name>IDK - INDULKANA TOWNSHIP</name>
      <description>State: SA</description>
      <Point>
        <coordinates>133.325,-26.965833333333332,0</coordinates>
      </Point>
    </Placemark>
    <Placemark>
      <name>KOOM - KOOMOOLOOBOOKA CAVE</name>
      <description>State: SA</description>
      <Point>
        <coordinates>129.58333333333334,-31.483333333333334,0</coordinates>
      </Point>
    </Placemark>
    <Placemark>
      <name>KREE - KOREELAH</name>
      <description>State: SA</description>
      <Point>
        <coordinates>136.91666666666666,-35.916666666666664,0</coordinates>
      </Point>
    </Placemark>
    <Placemark>
      <name>LEYN - LAKE EYRE NORTH</name>
      <description>State: SA</description>
      <Point>
        <coordinates>137.3,-28.416666666666668,0</coordinates>
      </Point>
    </Placemark>
    <Placemark>
      <name>LFRO - LAKE FROME</name>
      <description>State: SA</description>
      <Point>
        <coordinates>139.86666666666667,-30.633333333333333,0</coordinates>
      </Point>
    </Placemark>
    <Placemark>
      <name>LME - LAKE MAURICE</name>
      <description>State: SA</description>
      <Point>
        <coordinates>130.95,-29.4,0</coordinates>
      </Point>
    </Placemark>
    <Placemark>
      <name>LTRR - LAKE TORRENS</name>
      <description>State: SA</description>
      <Point>
        <coordinates>138.08666666666667,-31.421666666666667,0</coordinates>
      </Point>
    </Placemark>
    <Placemark>
      <name>LHCK - LANGHORNE CREEK</name>
      <description>State: SA</description>
      <Point>
        <coordinates>139.04444444444445,-35.295833333333334,0</coordinates>
      </Point>
    </Placemark>
    <Placemark>
      <name>LBET - LOBETHAL</name>
      <description>State: SA</description>
      <Point>
        <coordinates>138.86666666666667,-34.9,0</coordinates>
      </Point>
    </Placemark>
    <Placemark>
      <name>MGEW - MAGILL ESTATE WINERY</name>
      <description>State: SA</description>
      <Point>
        <coordinates>138.67999999999998,-34.919999999999995,0</coordinates>
      </Point>
    </Placemark>
    <Placemark>
      <name>MLIT - MARINO LIGHT HOUSE</name>
      <description>State: SA</description>
      <Point>
        <coordinates>138.5125,-35.05416666666667,0</coordinates>
      </Point>
    </Placemark>
    <Placemark>
      <name>MVAL - MCLAREN VALE</name>
      <description>State: SA</description>
      <Point>
        <coordinates>138.54722222222222,-35.225,0</coordinates>
      </Point>
    </Placemark>
    <Placemark>
      <name>BAK - MOUNT BARKER</name>
      <description>State: SA</description>
      <Point>
        <coordinates>138.86666666666667,-35.07777777777778,0</coordinates>
      </Point>
    </Placemark>
    <Placemark>
      <name>MBR - MOUNT BOLD RESV</name>
      <description>State: SA</description>
      <Point>
        <coordinates>138.7,-35.12083333333334,0</coordinates>
      </Point>
    </Placemark>
    <Placemark>
      <name>MCHR - MOUNT CHRISTIE</name>
      <description>State: SA</description>
      <Point>
        <coordinates>133.21666666666667,-30.55,0</coordinates>
      </Point>
    </Placemark>
    <Placemark>
      <name>MCOM - MOUNT COMPASS</name>
      <description>State: SA</description>
      <Point>
        <coordinates>138.61666666666667,-35.35,0</coordinates>
      </Point>
    </Placemark>
    <Placemark>
      <name>MPT - MOUNT PLEASANT</name>
      <description>State: SA</description>
      <Point>
        <coordinates>139.05,-34.775,0</coordinates>
      </Point>
    </Placemark>
    <Placemark>
      <name>MBD - MURRAY BRIDGE</name>
      <description>State: SA</description>
      <Point>
        <coordinates>139.30916666666667,-35.15,0</coordinates>
      </Point>
    </Placemark>
    <Placemark>
      <name>NARL - NOARLUNGA</name>
      <description>State: SA</description>
      <Point>
        <coordinates>138.48888888888888,-35.141666666666666,0</coordinates>
      </Point>
    </Placemark>
    <Placemark>
      <name>NUPA - NURIOOTPA</name>
      <description>State: SA</description>
      <Point>
        <coordinates>139.0,-34.483333333333334,0</coordinates>
      </Point>
    </Placemark>
    <Placemark>
      <name>OBSH - OBSERVATORY HILL</name>
      <description>State: SA</description>
      <Point>
        <coordinates>132.0,-28.966666666666665,0</coordinates>
      </Point>
    </Placemark>
    <Placemark>
      <name>OHB - OUTER HARBOR</name>
      <description>State: SA</description>
      <Point>
        <coordinates>138.48333333333332,-34.775,0</coordinates>
      </Point>
    </Placemark>
    <Placemark>
      <name>OEN - OWEN</name>
      <description>State: SA</description>
      <Point>
        <coordinates>138.54166666666666,-34.269999999999996,0</coordinates>
      </Point>
    </Placemark>
    <Placemark>
      <name>PEAR - PEARSON ISLES</name>
      <description>State: SA</description>
      <Point>
        <coordinates>134.26666666666668,-33.95,0</coordinates>
      </Point>
    </Placemark>
    <Placemark>
      <name>PIPT - PINE PT</name>
      <description>State: SA</description>
      <Point>
        <coordinates>137.88333333333333,-34.56666666666667,0</coordinates>
      </Point>
    </Placemark>
    <Placemark>
      <name>PAL - PORT ADELAIDE</name>
      <description>State: SA</description>
      <Point>
        <coordinates>138.5,-34.85,0</coordinates>
      </Point>
    </Placemark>
    <Placemark>
      <name>PJUL - PORT JULIA</name>
      <description>State: SA</description>
      <Point>
        <coordinates>137.8777777777778,-34.666666666666664,0</coordinates>
      </Point>
    </Placemark>
    <Placemark>
      <name>PNE - PORT NEILL</name>
      <description>State: SA</description>
      <Point>
        <coordinates>136.35,-34.11666666666667,0</coordinates>
      </Point>
    </Placemark>
    <Placemark>
      <name>PNL - PORT NOARLUNGA</name>
      <description>State: SA</description>
      <Point>
        <coordinates>138.46666666666667,-35.15,0</coordinates>
      </Point>
    </Placemark>
    <Placemark>
      <name>PVCT - PORT VINCENT</name>
      <description>State: SA</description>
      <Point>
        <coordinates>137.86083333333332,-34.781666666666666,0</coordinates>
      </Point>
    </Placemark>
    <Placemark>
      <name>RAPD - RAPID BAY</name>
      <description>State: SA</description>
      <Point>
        <coordinates>138.18333333333334,-35.52166666666667,0</coordinates>
      </Point>
    </Placemark>
    <Placemark>
      <name>RMH - RIVER MOUTH</name>
      <description>State: SA</description>
      <Point>
        <coordinates>138.35833333333332,-34.583333333333336,0</coordinates>
      </Point>
    </Placemark>
    <Placemark>
      <name>RVTN - RIVERTON</name>
      <description>State: SA</description>
      <Point>
        <coordinates>138.74666666666664,-34.165,0</coordinates>
      </Point>
    </Placemark>
    <Placemark>
      <name>SALW - SANDALWOOD</name>
      <description>State: SA</description>
      <Point>
        <coordinates>140.13333333333333,-34.95,0</coordinates>
      </Point>
    </Placemark>
    <Placemark>
      <name>SSTO - SANDERSTON</name>
      <description>State: SA</description>
      <Point>
        <coordinates>139.25166666666667,-34.74333333333333,0</coordinates>
      </Point>
    </Placemark>
    <Placemark>
      <name>SVAL - SECOND VALLEY</name>
      <description>State: SA</description>
      <Point>
        <coordinates>138.21666666666667,-35.516666666666666,0</coordinates>
      </Point>
    </Placemark>
    <Placemark>
      <name>SLB - SELLICKS BEACH</name>
      <description>State: SA</description>
      <Point>
        <coordinates>138.45,-35.34166666666667,0</coordinates>
      </Point>
    </Placemark>
    <Placemark>
      <name>SPR - SOUTH PARA RESERVOIR</name>
      <description>State: SA</description>
      <Point>
        <coordinates>138.86666666666667,-34.68333333333333,0</coordinates>
      </Point>
    </Placemark>
    <Placemark>
      <name>SKI - ST KILDA</name>
      <description>State: SA</description>
      <Point>
        <coordinates>138.53055555555557,-34.74166666666667,0</coordinates>
      </Point>
    </Placemark>
    <Placemark>
      <name>SRY - STANSBURY</name>
      <description>State: SA</description>
      <Point>
        <coordinates>137.7888888888889,-34.91111111111111,0</coordinates>
      </Point>
    </Placemark>
    <Placemark>
      <name>SYN - STRATHALBYN</name>
      <description>State: SA</description>
      <Point>
        <coordinates>138.89444444444445,-35.25833333333333,0</coordinates>
      </Point>
    </Placemark>
    <Placemark>
      <name>SUB - SUBSTATION</name>
      <description>State: SA</description>
      <Point>
        <coordinates>138.71305555555554,-34.736666666666665,0</coordinates>
      </Point>
    </Placemark>
    <Placemark>
      <name>SHER - SUTHERLANDS</name>
      <description>State: SA</description>
      <Point>
        <coordinates>139.23333333333332,-34.15,0</coordinates>
      </Point>
    </Placemark>
    <Placemark>
      <name>TRWL - TALLARINGA WELL</name>
      <description>State: SA</description>
      <Point>
        <coordinates>133.28333333333333,-29.033333333333335,0</coordinates>
      </Point>
    </Placemark>
    <Placemark>
      <name>TUND - TANUNDA</name>
      <description>State: SA</description>
      <Point>
        <coordinates>138.96666666666667,-34.53333333333333,0</coordinates>
      </Point>
    </Placemark>
    <Placemark>
      <name>TOWI - TARCOWIE</name>
      <description>State: SA</description>
      <Point>
        <coordinates>138.51666666666668,-32.95,0</coordinates>
      </Point>
    </Placemark>
    <Placemark>
      <name>TLEE - TARLEE</name>
      <description>State: SA</description>
      <Point>
        <coordinates>138.76833333333335,-34.275,0</coordinates>
      </Point>
    </Placemark>
    <Placemark>
      <name>THUM - THE GUMS</name>
      <description>State: SA</description>
      <Point>
        <coordinates>139.33333333333334,-33.833333333333336,0</coordinates>
      </Point>
    </Placemark>
    <Placemark>
      <name>TGU - THE GUMS HS</name>
      <description>State: SA</description>
      <Point>
        <coordinates>139.35,-33.85,0</coordinates>
      </Point>
    </Placemark>
    <Placemark>
      <name>TRUO - TRURO</name>
      <description>State: SA</description>
      <Point>
        <coordinates>139.12,-34.41166666666666,0</coordinates>
      </Point>
    </Placemark>
    <Placemark>
      <name>URC - URRBRAE AGRICULTURAL HIGH SCHOOL</name>
      <description>State: SA</description>
      <Point>
        <coordinates>138.625,-34.96666666666667,0</coordinates>
      </Point>
    </Placemark>
    <Placemark>
      <name>VELO - VELODROME</name>
      <description>State: SA</description>
      <Point>
        <coordinates>138.61111111111111,-34.84277777777778,0</coordinates>
      </Point>
    </Placemark>
    <Placemark>
      <name>VICP - VICTORIA PARK</name>
      <description>State: SA</description>
      <Point>
        <coordinates>138.62083333333334,-34.93333333333333,0</coordinates>
      </Point>
    </Placemark>
    <Placemark>
      <name>VOKH - VOKES HILL</name>
      <description>State: SA</description>
      <Point>
        <coordinates>130.58333333333334,-28.483333333333334,0</coordinates>
      </Point>
    </Placemark>
    <Placemark>
      <name>WTC - WAITE CAMPUS</name>
      <description>State: SA</description>
      <Point>
        <coordinates>138.63555555555556,-34.97,0</coordinates>
      </Point>
    </Placemark>
    <Placemark>
      <name>WRO - WALLAROO</name>
      <description>State: SA</description>
      <Point>
        <coordinates>137.63333333333333,-33.93333333333333,0</coordinates>
      </Point>
    </Placemark>
    <Placemark>
      <name>WRR - WARREN RESERVOIR</name>
      <description>State: SA</description>
      <Point>
        <coordinates>138.93333333333334,-34.708333333333336,0</coordinates>
      </Point>
    </Placemark>
    <Placemark>
      <name>WHPL - WILD HORSE PLAINS</name>
      <description>State: SA</description>
      <Point>
        <coordinates>138.28833333333333,-34.36,0</coordinates>
      </Point>
    </Placemark>
  </Document>
</kml>